{"tier":"country","field":"C1","parsed":true,"total":3555,"items":[{"name":"China","count":931,"lat":35.8617,"lng":104.1954},{"name":"United States","count":357,"lat":39.8052,"lng":-98.5556},{"name":"Italy","count":268,"lat":41.8715,"lng":12.5674},{"name":"Spain","count":242,"lat":40.4168,"lng":-3.7038},{"name":"Belgium","count":236,"lat":51.2171,"lng":4.4035},{"name":"Germany","count":196,"lat":51.1657,"lng":10.4515},{"name":"Netherlands","count":165,"lat":52.1326,"lng":5.2913},{"name":"United Kingdom","count":111,"lat":55.3781,"lng":-3.436},{"name":"Taiwan, Province of China","count":108,"lat":23.6978,"lng":120.9605},{"name":"South Korea","count":107,"lat":36.0,"lng":128.0},{"name":"Poland","count":73,"lat":52.0693,"lng":19.2582},{"name":"Switzerland","count":73,"lat":46.8182,"lng":8.2275},{"name":"Canada","count":66,"lat":56.1304,"lng":-106.3468},{"name":"Australia","count":51,"lat":-25.2744,"lng":133.7751},{"name":"Sweden","count":45,"lat":60.1692,"lng":18.6426},{"name":"Brazil","count":44,"lat":-14.235,"lng":-51.9253},{"name":"France","count":40,"lat":46.2276,"lng":-3.4359},{"name":"Hungary","count":34,"lat":47.544,"lng":19.047},{"name":"India","count":33,"lat":20.5937,"lng":78.9629},{"name":"Denmark","count":32,"lat":55.6761,"lng":12.5683},{"name":"Japan","count":26,"lat":36.20482,"lng":138.25296},{"name":"Russia","count":23,"lat":55.75222,"lng":37.61722},{"name":"Portugal","count":22,"lat":39.7065,"lng":-8.8192},{"name":"Greece","count":21,"lat":39.0742,"lng":21.8283},{"name":"Singapore","count":20,"lat":1.3521,"lng":103.8198},{"name":"South Africa","count":18,"lat":-30.5595,"lng":22.9375},{"name":"Iran","count":18,"lat":32.0252,"lng":51.3312},{"name":"Slovenia","count":17,"lat":46.1516,"lng":14.9999},{"name":"Austria","count":17,"lat":47.5162,"lng":14.5501},{"name":"Israel","count":16,"lat":31.0464,"lng":34.8517},{"name":"Norway","count":14,"lat":62.0493,"lng":8.4581},{"name":"Finland","count":14,"lat":62.2465,"lng":25.7481},{"name":"Malaysia","count":13,"lat":4.2105,"lng":101.9758},{"name":"Turkey","count":11,"lat":38.9636,"lng":35.2433},{"name":"Czech Republic","count":11,"lat":49.8175,"lng":15.473},{"name":"Romania","count":8,"lat":45.9432,"lng":24.9668},{"name":"Saudi Arabia","count":8,"lat":23.8859,"lng":45.0792},{"name":"Pakistan","count":7,"lat":33.9368,"lng":67.7464},{"name":"Croatia","count":6,"lat":45.1,"lng":15.9667},{"name":"Mexico","count":5,"lat":19.4326,"lng":-99.1332},{"name":"New Zealand","count":5,"lat":-40.9005,"lng":174.886},{"name":"Ireland","count":4,"lat":53.4129,"lng":-8.2439},{"name":"Ecuador","count":4,"lat":-2.1884,"lng":-79.8565},{"name":"Thailand","count":3,"lat":15.87,"lng":100.9925},{"name":"Slovakia","count":3,"lat":48.1536,"lng":17.1076},{"name":"Tunisia","count":2,"lat":33.913,"lng":10.1927},{"name":"United Arab Emirates","count":2,"lat":24.4539,"lng":54.366},{"name":"Argentina","count":2,"lat":-34.3932,"lng":-60.6204},{"name":"Georgia","count":2,"lat":42.5316,"lng":44.5307},{"name":"Egypt","count":2,"lat":26.8206,"lng":30.8025},{"name":"Benin","count":2,"lat":9.3077,"lng":2.3158},{"name":"Chile","count":2,"lat":-35.6751,"lng":-71.6429},{"name":"Lithuania","count":2,"lat":55.1694,"lng":23.8813},{"name":"Luxembourg","count":2,"lat":49.8153,"lng":6.1296},{"name":"Lebanon","count":1,"lat":33.8547,"lng":35.8623},{"name":"Isle of Man","count":1,"lat":54.1667,"lng":-4.4333},{"name":"Indonesia","count":1,"lat":-0.7893,"lng":113.9213},{"name":"North Korea","count":1,"lat":40.008,"lng":127.499},{"name":"Taiwan, Province of China","count":1,"lat":23.6978,"lng":120.9614},{"name":"Armenia","count":1,"lat":40.1822,"lng":44.4274},{"name":"Bulgaria","count":1,"lat":42.6975,"lng":23.3218},{"name":"Ukraine","count":1,"lat":48.3794,"lng":31.1656},{"name":"Montenegro","count":1,"lat":42.4,"lng":19.3},{"name":"Bangladesh","count":1,"lat":23.685,"lng":90.3563},{"name":"Serbia","count":1,"lat":44.8009,"lng":20.4822}]}