{
    "total": 2379,
    "page": 1,
    "page_size": 2379,
    "records": [
        {
            "address": "Univ Antwerp, Fac Social Sci, B-2020 Antwerp, Belgium",
            "name": "Belgium",
            "lat": 50.8503,
            "lng": 4.3517,
            "src": "ai",
            "model": "Aliyun:qwen-turbo-2025-07-15"
        },
        {
            "address": "Katholieke Univ Leuven, Ctr R&D Monitoring ECOOM, B-3000 Leuven, Belgium",
            "name": "Belgium",
            "lat": 50.8529,
            "lng": 4.3294,
            "src": "ai",
            "model": "Aliyun:tongyi-xiaomi-analysis-flash"
        },
        {
            "address": "Katholieke Univ Leuven, Dept MSI, B-3000 Leuven, Belgium",
            "name": "Belgium",
            "lat": 50.6473,
            "lng": 4.6624,
            "src": "ai",
            "model": "Aliyun:qwen3-coder-next"
        },
        {
            "address": "Nanjing Univ, Sch Informat Management, Nanjing, China",
            "name": "China",
            "lat": 35.8617,
            "lng": 104.1954,
            "src": "ai",
            "model": "Aliyun:qwen-turbo-2025-04-28"
        },
        {
            "address": "Zhejiang Univ Finance & Econ, Sch Management, Hangzhou, China",
            "name": "China",
            "lat": 35.8617,
            "lng": 104.1954,
            "src": "ai",
            "model": "Aliyun:qwen-flash"
        },
        {
            "address": "Fudan Univ, Natl Expt Base Intelligent Evaluat & Governance, Shanghai, China",
            "name": "China",
            "lat": 35.8617,
            "lng": 104.1954,
            "src": "ai",
            "model": "Aliyun:qwen-turbo-2024-11-01"
        },
        {
            "address": "Nanjing Univ, Int Joint Informat Lab, Nanjing, China",
            "name": "China",
            "lat": 35.8617,
            "lng": 104.1954,
            "src": "ai",
            "model": "Aliyun:qwen3-30b-a3b-instruct-2507"
        },
        {
            "address": "Renmin Univ China, Sch Informat Resource Management, Beijing 100872, China",
            "name": "China",
            "lat": 35.8617,
            "lng": 104.1954,
            "src": "ai",
            "model": "Aliyun:qwen-turbo-latest"
        },
        {
            "address": "Renmin Univ China, Sch Informat, Beijing 100872, China",
            "name": "China",
            "lat": 35.8617,
            "lng": 104.1954,
            "src": "ai",
            "model": "Aliyun:qwen3-coder-480b-a35b-instruct"
        },
        {
            "address": "Eindhoven Univ Technol, Sch Innovat Sci, NL-5600 MB Eindhoven, Netherlands",
            "name": "Netherlands",
            "lat": 52.3728,
            "lng": 4.8952,
            "src": "ai",
            "model": "Aliyun:tongyi-xiaomi-analysis-pro"
        },
        {
            "address": "Univ Utrecht, Dept Innovat Studies, NL-3508 TC Utrecht, Netherlands",
            "name": "Netherlands",
            "lat": 52.13263,
            "lng": 5.29127,
            "src": "ai",
            "model": "Aliyun:qwen2.5-14b-instruct"
        },
        {
            "address": "So Cross Univ, Sch Environm Sci & Management, Lismore, NSW 2480, Australia",
            "name": "Australia",
            "lat": -33.6689,
            "lng": 151.1364,
            "src": "ai",
            "model": "Aliyun:codeqwen1.5-7b-chat"
        },
        {
            "address": "Max Planck Gesell, D-80539 Munich, Germany",
            "name": "Germany",
            "lat": 51.1657,
            "lng": 10.4515,
            "src": "ai",
            "model": "Aliyun:qwen3-coder-plus-2025-07-22"
        },
        {
            "address": "Univ Amsterdam, Amsterdam Sch Commun Res, NL-1012 CX Amsterdam, Netherlands",
            "name": "Netherlands",
            "lat": 52.3676,
            "lng": 4.9041,
            "src": "ai",
            "model": "Aliyun:qwen-turbo"
        },
        {
            "address": "Univ Hasselt, B-3590 Diepenbeek, Belgium",
            "name": "Belgium",
            "lat": 50.8503,
            "lng": 4.3517,
            "src": "ai",
            "model": "Aliyun:deepseek-v3.1"
        },
        {
            "address": "Univ Antwerp, B-2610 Antwerp, Belgium",
            "name": "Belgium",
            "lat": 50.5039,
            "lng": 4.4699,
            "src": "ai",
            "model": "Aliyun:qwen2.5-32b-instruct"
        },
        {
            "address": "Univ Antwerp, B-2000 Antwerp, Belgium",
            "name": "Belgium",
            "lat": 50.5039,
            "lng": 4.4699,
            "src": "ai",
            "model": "Aliyun:qwen-plus-2025-07-14"
        },
        {
            "address": "Natl Res Council Italy, Inst Syst Anal & Comp Sci IASI CNR, Lab Studies Res & Technol Transfer, Rome, Italy",
            "name": "Italy",
            "lat": 41.8719,
            "lng": 12.5694,
            "src": "ai",
            "model": "Aliyun:qwen2.5-7b-instruct-1m"
        },
        {
            "address": "Univ Roma Tor Vergata, Rome, Italy",
            "name": "Italy",
            "lat": 41.8719,
            "lng": 12.5674,
            "src": "ai",
            "model": "Aliyun:qwen3-next-80b-a3b-instruct"
        },
        {
            "address": "Lab Studies Res & Technol Transfer IASI CNR, Rome, Italy",
            "name": "Italy",
            "lat": 41.8922,
            "lng": 12.5114,
            "src": "ai",
            "model": "Aliyun:qwen-coder-turbo-0919"
        },
        {
            "address": "Max Planck Gesell, Sci Policy & Strategy Dept, Adm Headquarters, Hofgartenstr 8, D-80539 Munich, Germany",
            "name": "Germany",
            "lat": 51.16389,
            "lng": 10.4475,
            "src": "ai",
            "model": "Aliyun:qwen2.5-7b-instruct"
        },
        {
            "address": "Tech Univ Dresden, CEPIE Ctr Publ & Int Econ, Munchner Pl 2-3, D-01069 Dresden, Germany",
            "name": "Germany",
            "lat": 51.1657,
            "lng": 10.4515,
            "src": "ai",
            "model": "Aliyun:qwen-plus-2025-04-28"
        },
        {
            "address": "CSIC, Inst Publ Goods & Policies IPP, Consejo Super Invest Cient, C Albasanz 26-28, Madrid 28037, Spain",
            "name": "Spain",
            "lat": 40.4637,
            "lng": -3.7492,
            "src": "ai",
            "model": "Aliyun:qwen-coder-plus-1106"
        },
        {
            "address": "Ifo Inst, Poschingerstr 5, D-81679 Munich, Germany",
            "name": "Germany",
            "lat": 48.1377,
            "lng": 11.5752,
            "src": "ai",
            "model": "Aliyun:qwen-coder-turbo-latest"
        },
        {
            "address": "Wuhan Univ, Ctr Studies Informat Resources, Wuhan 430072, China",
            "name": "China",
            "lat": 35.8617,
            "lng": 104.1954,
            "src": "ai",
            "model": "Aliyun:qwen-coder-plus-latest"
        },
        {
            "address": "Huazhong Normal Univ, Sch Informat Management, Wuhan 430079, China",
            "name": "China",
            "lat": 35.8617,
            "lng": 104.1954,
            "src": "ai",
            "model": "Aliyun:qwen-plus-2025-12-01"
        },
        {
            "address": "Drexel Univ, Coll Comp & Informat, 3141 Chestnut St, Philadelphia, USA",
            "name": "United States",
            "lat": 39.9522,
            "lng": -75.1639,
            "src": "ai",
            "model": "Aliyun:qwen-coder-turbo"
        },
        {
            "address": "Aarhus Univ, Danish Ctr Studies Res & Res Policy, Bartholins Alle 7, DK-8000 Aarhus C, Denmark",
            "name": "Denmark",
            "lat": 56.2639,
            "lng": 9.5018,
            "src": "ai",
            "model": "Aliyun:qwen2.5-coder-14b-instruct"
        },
        {
            "address": "Guangzhou Univ, Sun Yat Sen Univ, Huandong Rd,132 Waihuan East Rd, Guangzhou 510006, China",
            "name": "China",
            "lat": 35.8617,
            "lng": 104.1954,
            "src": "ai",
            "model": "Aliyun:qwen2.5-coder-32b-instruct"
        },
        {
            "address": "Dalian Univ, Sch Econ & Management, Dalian 116622, China",
            "name": "China",
            "lat": 35.8617,
            "lng": 104.1954,
            "src": "ai",
            "model": "Aliyun:qwen3-coder-flash"
        },
        {
            "address": "Zhejiang Univ, Dept Informat Resource Management, Hangzhou 310058, Zhejiang, China",
            "name": "China",
            "lat": 35.8617,
            "lng": 104.1954,
            "src": "ai",
            "model": "Aliyun:qwen-turbo-2025-07-15"
        },
        {
            "address": "SUN Yat Sen Univ, Sch Informat Management, Guangzhou, Guangdong, China",
            "name": "China",
            "lat": 35.8617,
            "lng": 104.1954,
            "src": "ai",
            "model": "Aliyun:tongyi-xiaomi-analysis-flash"
        },
        {
            "address": "Univ Extremadura, Dept Informat & Commun, Scimago Grp, E-06071 Badajoz, Spain",
            "name": "Spain",
            "lat": 40.46367,
            "lng": -3.74922,
            "src": "ai",
            "model": "Aliyun:qwen3-coder-next"
        },
        {
            "address": "CSIC, CCHS, IPP, Scimago Grp, Madrid, Spain",
            "name": "Spain",
            "lat": 40.4637,
            "lng": -3.7492,
            "src": "ai",
            "model": "Aliyun:qwen-turbo-2025-04-28"
        },
        {
            "address": "Fudan Univ, Inst Global Publ Policy, Shanghai, China",
            "name": "China",
            "lat": 35.8617,
            "lng": 104.1954,
            "src": "ai",
            "model": "Aliyun:qwen-flash"
        },
        {
            "address": "Fudan Univ, LSE Fudan Res Ctr Global Publ Policy, Shanghai, China",
            "name": "China",
            "lat": 35.8617,
            "lng": 104.1954,
            "src": "ai",
            "model": "Aliyun:qwen-turbo-2024-11-01"
        },
        {
            "address": "Fudan Univ, Shanghai Ctr Innovat & Governance, Shanghai, China",
            "name": "China",
            "lat": 35.8617,
            "lng": 104.1954,
            "src": "ai",
            "model": "Aliyun:qwen3-30b-a3b-instruct-2507"
        },
        {
            "address": "Nanjing Univ, Sch Informat Management, Nanjing, Jiangsu, China",
            "name": "China",
            "lat": 35.8617,
            "lng": 104.1954,
            "src": "ai",
            "model": "Aliyun:qwen-turbo-latest"
        },
        {
            "address": "Univ Hong Kong, Fac Educ, Hong Kong, China",
            "name": "China",
            "lat": 35.8617,
            "lng": 104.1954,
            "src": "ai",
            "model": "Aliyun:qwen3-coder-480b-a35b-instruct"
        },
        {
            "address": "Univ Texas Austin, Sch Informat, Austin, USA",
            "name": "United States",
            "lat": 37.0902,
            "lng": -95.7129,
            "src": "ai",
            "model": "Aliyun:tongyi-xiaomi-analysis-pro"
        },
        {
            "address": "Sun Yat sen Univ, Sch Informat Management, Guangzhou, Guangdong, China",
            "name": "China",
            "lat": 35.8617,
            "lng": 104.1954,
            "src": "ai",
            "model": "Aliyun:qwen2.5-14b-instruct"
        },
        {
            "address": "Peking Univ, Dept Informat Management, Beijing, China",
            "name": "China",
            "lat": 40.7128,
            "lng": -74.006,
            "src": "ai",
            "model": "Aliyun:codeqwen1.5-7b-chat"
        },
        {
            "address": "Univ Michigan, Sch Informat, Ann Arbor, USA",
            "name": "United States",
            "lat": 37.0902,
            "lng": -95.7129,
            "src": "ai",
            "model": "Aliyun:qwen3-coder-plus-2025-07-22"
        },
        {
            "address": "Univ Texas Austin, Dell Med Sch, Austin, USA",
            "name": "United States",
            "lat": 37.0902,
            "lng": -95.7129,
            "src": "ai",
            "model": "Aliyun:qwen-turbo"
        },
        {
            "address": "Univ Hong Kong, Musketeers Fdn Inst Data Sci, Hong Kong, China",
            "name": "China",
            "lat": 35.8617,
            "lng": 104.1954,
            "src": "ai",
            "model": "Aliyun:deepseek-v3.1"
        },
        {
            "address": "Politecn Torino, DISPEA Dept Prod Syst & Business Econ, I-10129 Turin, Italy",
            "name": "Italy",
            "lat": 41.9028,
            "lng": 12.4964,
            "src": "ai",
            "model": "Aliyun:qwen2.5-32b-instruct"
        },
        {
            "address": "Politecn Torino, DISPEA, I-10129 Turin, Italy",
            "name": "Italy",
            "lat": 41.8719,
            "lng": 12.5674,
            "src": "ai",
            "model": "Aliyun:qwen-plus-2025-07-14"
        },
        {
            "address": "Stanford Univ, Hist Sci, Stanford, USA",
            "name": "United States",
            "lat": 37.422,
            "lng": -122.1625,
            "src": "ai",
            "model": "Aliyun:qwen2.5-7b-instruct-1m"
        },
        {
            "address": "Univ Wolverhampton, Sch Math & Comp Sci, Stat Cybermetr Res Grp, Wulfruna St, Wolverhampton WV1 1LY, W Midlands, UK",
            "name": "United Kingdom",
            "lat": 52.2986,
            "lng": 0.1255,
            "src": "ai",
            "model": "Aliyun:tongyi-xiaomi-analysis-flash"
        },
        {
            "address": "Forschungszentrum Julich, Cent Lib, D-52425 Julich, Germany",
            "name": "Germany",
            "lat": 51.9615,
            "lng": 7.6785,
            "src": "ai",
            "model": "Aliyun:qwen-coder-turbo-0919"
        },
        {
            "address": "Univ Dusseldorf, Dept Informat Sci, D-40225 Dusseldorf, Germany",
            "name": "Germany",
            "lat": 51.2272,
            "lng": 6.7741,
            "src": "ai",
            "model": "Aliyun:qwen2.5-7b-instruct"
        },
        {
            "address": "Nanjing Univ Informat Sci & Technol, Sch Management Sci & Engn, Nanjing 210044, China",
            "name": "China",
            "lat": 35.8617,
            "lng": 104.1954,
            "src": "ai",
            "model": "Aliyun:qwen-plus-2025-04-28"
        },
        {
            "address": "Univ Sheffield, Informat Sch, Sheffield S10 2TN, UK",
            "name": "United Kingdom",
            "lat": 55.3781,
            "lng": -3.436,
            "src": "ai",
            "model": "Aliyun:qwen-coder-plus-1106"
        },
        {
            "address": "Hasselt Univ, Hasselt, Belgium",
            "name": "Belgium",
            "lat": 50.9222,
            "lng": 4.3506,
            "src": "ai",
            "model": "Aliyun:qwen-coder-turbo-latest"
        },
        {
            "address": "Nanjing Univ, Res Inst Data Management & Innovat, Suzhou 215163, China",
            "name": "China",
            "lat": 35.8617,
            "lng": 104.1954,
            "src": "ai",
            "model": "Aliyun:qwen-coder-plus-latest"
        },
        {
            "address": "Nanjing Univ, Lab Data Intelligence & Interdisciplinary Innovat, Nanjing 210023, China",
            "name": "China",
            "lat": 35.8617,
            "lng": 104.1954,
            "src": "ai",
            "model": "Aliyun:qwen-plus-2025-12-01"
        },
        {
            "address": "Wroclaw Univ Sci & Technol, Dept Artificial Intelligence, PL-50370 Wroclaw, Poland",
            "name": "Poland",
            "lat": 51.1078,
            "lng": 17.0385,
            "src": "ai",
            "model": "Aliyun:qwen-coder-turbo"
        },
        {
            "address": "Isle Man Int Business Sch, Douglas IM2 1QB, Man, UK",
            "name": "United Kingdom",
            "lat": 55.3781,
            "lng": -3.436,
            "src": "ai",
            "model": "Aliyun:qwen2.5-coder-14b-instruct"
        },
        {
            "address": "CCHS CSIC, Cybermetr Lab, Madrid 28037, Spain",
            "name": "Spain",
            "lat": 40.4637,
            "lng": -3.7492,
            "src": "ai",
            "model": "Aliyun:qwen2.5-coder-32b-instruct"
        },
        {
            "address": "Dalian Univ Technol, WISE Lab, Dalian 116024, Liaoning, China",
            "name": "China",
            "lat": 35.8617,
            "lng": 104.1954,
            "src": "ai",
            "model": "Aliyun:qwen3-coder-flash"
        },
        {
            "address": "Indiana Univ, Sch Informat Comp & Engn, Bloomington, USA",
            "name": "United States",
            "lat": 37.0902,
            "lng": -95.7129,
            "src": "ai",
            "model": "Aliyun:qwen-turbo-2025-07-15"
        },
        {
            "address": "Univ Texas Austin, Dept Populat Hlth, Sch Informat, Austin, USA",
            "name": "United States",
            "lat": 37.7749,
            "lng": -97.4267,
            "src": "ai",
            "model": "Aliyun:tongyi-xiaomi-analysis-flash"
        },
        {
            "address": "Wuhan Univ, Sch Informat Management, Wuhan 430072, Hubei, China",
            "name": "China",
            "lat": 35.8617,
            "lng": 104.1954,
            "src": "ai",
            "model": "Aliyun:qwen3-coder-next"
        },
        {
            "address": "Zhejiang Univ, Sch Med, Med Informat Ctr, Hangzhou 310058, Zhejiang, China",
            "name": "China",
            "lat": 35.8617,
            "lng": 104.1954,
            "src": "ai",
            "model": "Aliyun:qwen-turbo-2025-04-28"
        },
        {
            "address": "Univ Amsterdam, Amsterdam Sch Commun Res ASCoR, POB 15793, NL-1001 NG Amsterdam, Netherlands",
            "name": "Netherlands",
            "lat": 52.3676,
            "lng": 4.9041,
            "src": "ai",
            "model": "Aliyun:qwen-flash"
        },
        {
            "address": "Katholieke Univ Leuven, Dept Math, Celestijnenlaan 200B, B-3001 Leuven, Belgium",
            "name": "Belgium",
            "lat": 50.8505,
            "lng": 4.3517,
            "src": "ai",
            "model": "Aliyun:qwen-turbo-2024-11-01"
        },
        {
            "address": "Univ Antwerp, Fac Social Sci, B-2000 Antwerp, Belgium",
            "name": "Belgium",
            "lat": 51.2171,
            "lng": 4.4036,
            "src": "ai",
            "model": "Aliyun:qwen3-30b-a3b-instruct-2507"
        },
        {
            "address": "CNR, Lab Studies Res & Technol Transfer, Inst Syst Anal & Comp Sci IASI CNR, Rome, Italy",
            "name": "Italy",
            "lat": 41.9026,
            "lng": 12.4534,
            "src": "ai",
            "model": "Aliyun:qwen-turbo-latest"
        },
        {
            "address": "Univ Roma Tor Vergata, Sch Engn, Dept Management, Rome, Italy",
            "name": "Italy",
            "lat": 41.8719,
            "lng": 12.5674,
            "src": "ai",
            "model": "Aliyun:qwen3-coder-480b-a35b-instruct"
        },
        {
            "address": "Univ Siena, I-53100 Siena, Italy",
            "name": "Italy",
            "lat": 42.8333,
            "lng": 12.8333,
            "src": "ai",
            "model": "Aliyun:tongyi-xiaomi-analysis-pro"
        },
        {
            "address": "Univ Malaga, ETS Ingn Informat, Dept Tecnol Elect, Bulevar Louis Pasteur,35 Campus Teatinos, Malaga 29071, Spain",
            "name": "Spain",
            "lat": 40.4165,
            "lng": -3.7026,
            "src": "ai",
            "model": "Aliyun:qwen2.5-14b-instruct"
        },
        {
            "address": "Univ Malaga, ETS Ingn Informat, Dept Lenguajes & Ciencias Comp, Bulevar Louis Pasteur,35 Campus Teatinos, Malaga 29071, Spain",
            "name": "Spain",
            "lat": 36.7215,
            "lng": -4.41878,
            "src": "ai",
            "model": "Aliyun:codeqwen1.5-7b-chat"
        },
        {
            "address": "Georgia Inst Technol, Sch Publ Policy, Atlanta, USA",
            "name": "United States",
            "lat": 37.0902,
            "lng": -95.7129,
            "src": "ai",
            "model": "Aliyun:qwen3-coder-plus-2025-07-22"
        },
        {
            "address": "Natl Cent Univ, Dept Informat Management, Jhongli 32001, Taoyuan, Taiwan(China)",
            "name": "Taiwan (China)",
            "lat": 23.6978,
            "lng": 120.9605,
            "src": "ai",
            "model": "Aliyun:qwen-turbo"
        },
        {
            "address": "Natl Tsing Hua Univ, Inst Serv Sci, Hsinchu 30013, Taiwan(China)",
            "name": "China",
            "lat": 35.8617,
            "lng": 104.1954,
            "src": "ai",
            "model": "Aliyun:deepseek-v3.1"
        },
        {
            "address": "Carlos III Univ Madrid, Dept Lib & Informat Sci, Calle Madrid 126, Getafe 28903, Spain",
            "name": "Spain",
            "lat": 40.4637,
            "lng": -3.7492,
            "src": "ai",
            "model": "Aliyun:qwen2.5-32b-instruct"
        },
        {
            "address": "Res Inst Higher Educ & Sci INAECU UAC3m UAM, Madrid, Spain",
            "name": "Spain",
            "lat": 40.4637,
            "lng": -3.7492,
            "src": "ai",
            "model": "Aliyun:qwen-plus-2025-07-14"
        },
        {
            "address": "Univ Vienna, Lib & Arch Serv, Bibliometr & Publicat Strategies, Boltzmanngasse 5, A-1090 Vienna, Austria",
            "name": "Austria",
            "lat": 48.2081,
            "lng": 16.3738,
            "src": "ai",
            "model": "Aliyun:qwen2.5-7b-instruct-1m"
        },
        {
            "address": "Northeastern Univ, Ctr Complex Network Res, Boston, USA",
            "name": "United States",
            "lat": 37.0902,
            "lng": -95.7129,
            "src": "ai",
            "model": "Aliyun:qwen3-next-80b-a3b-instruct"
        },
        {
            "address": "Australian Natl Univ, Sch Polit & Int Relat, Canberra, ACT 0200, Australia",
            "name": "Australia",
            "lat": -35.2844,
            "lng": 149.13,
            "src": "ai",
            "model": "Aliyun:qwen-coder-turbo-0919"
        },
        {
            "address": "Max Planck Soc Munich MPG, Munich, Germany",
            "name": "Germany",
            "lat": 51.1657,
            "lng": 10.4515,
            "src": "ai",
            "model": "Aliyun:qwen2.5-7b-instruct"
        },
        {
            "address": "Univ Rovira & Virgili, Dept Econ, Tarragona, Spain",
            "name": "Spain",
            "lat": 40.4637,
            "lng": -3.7492,
            "src": "ai",
            "model": "Aliyun:qwen-plus-2025-04-28"
        },
        {
            "address": "CREIP, Reus, Spain",
            "name": "Spain",
            "lat": 40.4637,
            "lng": -3.7492,
            "src": "ai",
            "model": "Aliyun:qwen-coder-plus-1106"
        },
        {
            "address": "Sun Yat Sen Univ, Sch Informat Management, Guangzhou Higher Educ Mega Ctr, 132 Waihuan East Rd, Guangzhou 510006, China",
            "name": "China",
            "lat": 31.2304,
            "lng": 121.4737,
            "src": "ai",
            "model": "Aliyun:qwen-coder-turbo-latest"
        },
        {
            "address": "Leiden Univ, Ctr Sci & Technol Studies, NL-2300 RA Leiden, Netherlands",
            "name": "Netherlands",
            "lat": 52.1326,
            "lng": 5.2913,
            "src": "ai",
            "model": "Aliyun:qwen-coder-plus-latest"
        },
        {
            "address": "Dalian Univ Technol, Sch Software, Dalian 116024, China",
            "name": "China",
            "lat": 35.8617,
            "lng": 104.1954,
            "src": "ai",
            "model": "Aliyun:qwen-plus-2025-12-01"
        },
        {
            "address": "Dalian Univ Technol, Sch Life Sci & Biotechnol, Ctr Mol Med, Dalian 116024, China",
            "name": "China",
            "lat": 39.1567,
            "lng": 121.64,
            "src": "ai",
            "model": "Aliyun:qwen-coder-turbo"
        },
        {
            "address": "Nanjing Univ, Int Joint Informat Lab, Nanjing 210023, China",
            "name": "China",
            "lat": 35.8617,
            "lng": 104.1954,
            "src": "ai",
            "model": "Aliyun:qwen2.5-coder-14b-instruct"
        },
        {
            "address": "Nanjing Univ, Jiangsu Key Lab Data Engn & Knowledge Serv, Nanjing 210023, China",
            "name": "China",
            "lat": 35.8617,
            "lng": 104.1954,
            "src": "ai",
            "model": "Aliyun:qwen2.5-coder-32b-instruct"
        },
        {
            "address": "Nanjing Univ, Sch Informat Management, Nanjing 210023, China",
            "name": "China",
            "lat": 35.8617,
            "lng": 104.1954,
            "src": "ai",
            "model": "Aliyun:qwen3-coder-flash"
        },
        {
            "address": "Univ Cantabria, Dept Econ, E-39005 Santander, Spain",
            "name": "Spain",
            "lat": 40.4168,
            "lng": -3.7038,
            "src": "ai",
            "model": "Aliyun:qwen-turbo-2025-07-15"
        },
        {
            "address": "Zhejiang Dev & Planning Inst, Hangzhou, China",
            "name": "China",
            "lat": 35.8617,
            "lng": 104.1954,
            "src": "ai",
            "model": "Aliyun:tongyi-xiaomi-analysis-flash"
        },
        {
            "address": "Univ Sci & Technol China, Sch Management, Hefei, China",
            "name": "China",
            "lat": 35.8617,
            "lng": 104.1954,
            "src": "ai",
            "model": "Aliyun:qwen3-coder-next"
        },
        {
            "address": "McGill Univ, Sch Informat Studies, 3661 Peel, Montreal, PQ H3A 1X1, Canada",
            "name": "Canada",
            "lat": 56.1304,
            "lng": -106.9499,
            "src": "ai",
            "model": "Aliyun:qwen-turbo-2025-04-28"
        },
        {
            "address": "Victoria Univ Wellington, Sch Informat Management, Wellington, New Zealand",
            "name": "New Zealand",
            "lat": -41.3068,
            "lng": 174.8254,
            "src": "ai",
            "model": "Aliyun:qwen-flash"
        },
        {
            "address": "Nord Inst Studies Innovat Res & Educ, Oslo, Norway",
            "name": "Norway",
            "lat": 63.4304,
            "lng": 10.3953,
            "src": "ai",
            "model": "Aliyun:qwen-turbo-2024-11-01"
        },
        {
            "address": "Katholieke Univ Leuven, Ctr R&D Monitoring ECOOM, Leuven, Belgium",
            "name": "Belgium",
            "lat": 50.8467,
            "lng": 4.7013,
            "src": "ai",
            "model": "Aliyun:qwen3-30b-a3b-instruct-2507"
        },
        {
            "address": "Katholieke Univ Leuven, Dept MSI, Leuven, Belgium",
            "name": "Belgium",
            "lat": 50.8503,
            "lng": 4.3517,
            "src": "ai",
            "model": "Aliyun:qwen-turbo-latest"
        },
        {
            "address": "Wuhan Univ, Sch Informat Management, Wuhan, Hubei, China",
            "name": "China",
            "lat": 35.8617,
            "lng": 104.1954,
            "src": "ai",
            "model": "Aliyun:qwen3-coder-480b-a35b-instruct"
        },
        {
            "address": "Shenzhen Polytech, Sch Management, Shenzhen 518055, Guangdong, China",
            "name": "China",
            "lat": 35.8617,
            "lng": 104.1954,
            "src": "ai",
            "model": "Aliyun:tongyi-xiaomi-analysis-pro"
        },
        {
            "address": "Zhengzhou Univ, Henan Acad Big Data, Zhengzhou Key Lab Big Data Anal & Applicat, 75 Daxuebei Ro, Zhengzhou 450000, Henan, China",
            "name": "China",
            "lat": 35.8617,
            "lng": 104.1954,
            "src": "ai",
            "model": "Aliyun:qwen2.5-14b-instruct"
        },
        {
            "address": "Yonsei Univ, Dept Lib & Informat Sci, 50 Yonsei Ro, Seoul 03722, South Korea",
            "name": "South Korea",
            "lat": 37.5665,
            "lng": 126.9786,
            "src": "ai",
            "model": "Aliyun:codeqwen1.5-7b-chat"
        },
        {
            "address": "Adam Mickiewicz Univ, Ctr Publ Policy Studies, Poznan, Poland",
            "name": "Poland",
            "lat": 52.0693,
            "lng": 19.2456,
            "src": "ai",
            "model": "Aliyun:qwen3-coder-plus-2025-07-22"
        },
        {
            "address": "German Ctr Higher Educ Res & Sci Studies DZHW, Berlin, Germany",
            "name": "Germany",
            "lat": 51.1657,
            "lng": 10.4515,
            "src": "ai",
            "model": "Aliyun:qwen-turbo"
        },
        {
            "address": "Poznan Univ Econ & Business, Poznan, Poland",
            "name": "Poland",
            "lat": 51.9194,
            "lng": 19.1451,
            "src": "ai",
            "model": "Aliyun:deepseek-v3.1"
        },
        {
            "address": "Univ Sao Paulo, Inst Phys Sao Carlos, POB 369, BR-13560970 Sao Carlos, SP, Brazil",
            "name": "Brazil",
            "lat": -14.235,
            "lng": -51.925,
            "src": "ai",
            "model": "Aliyun:qwen2.5-32b-instruct"
        },
        {
            "address": "Wolverhampton Univ, Stat Cybermetr Res Grp, Sch Math & Comp Sci, Wulfruna St, Wolverhampton WV1 1LY, W Midlands, UK",
            "name": "United Kingdom",
            "lat": 55.3781,
            "lng": -3.436,
            "src": "ai",
            "model": "Aliyun:qwen-plus-2025-07-14"
        },
        {
            "address": "Wuhan Univ, Sch Informat Management, Wuhan 430072, China",
            "name": "China",
            "lat": 30.5959,
            "lng": 114.3253,
            "src": "ai",
            "model": "Aliyun:qwen2.5-7b-instruct-1m"
        },
        {
            "address": "Natl Univ Singapore, Ctr Quantitat Finance, Dept Math, Singapore 119076, Singapore",
            "name": "Singapore",
            "lat": 1.3521,
            "lng": 103.8198,
            "src": "ai",
            "model": "Aliyun:qwen3-coder-next"
        },
        {
            "address": "Natl Univ Singapore, Risk Management Inst, Singapore 119076, Singapore",
            "name": "Singapore",
            "lat": 1.2894,
            "lng": 103.8519,
            "src": "ai",
            "model": "Aliyun:qwen-coder-turbo-0919"
        },
        {
            "address": "Tech Univ Berlin, Inst Math, D-10623 Berlin, Germany",
            "name": "Germany",
            "lat": 51.1657,
            "lng": 10.4515,
            "src": "ai",
            "model": "Aliyun:qwen2.5-7b-instruct"
        },
        {
            "address": "Zuse Inst Berlin, Appl Algorithm Intelligence Methods, D-14195 Berlin, Germany",
            "name": "Germany",
            "lat": 51.1657,
            "lng": 10.4515,
            "src": "ai",
            "model": "Aliyun:qwen-plus-2025-04-28"
        },
        {
            "address": "Univ Granada, Software Engn Dept, E-18071 Granada, Spain",
            "name": "Spain",
            "lat": 40.4637,
            "lng": -3.7492,
            "src": "ai",
            "model": "Aliyun:qwen-coder-plus-1106"
        },
        {
            "address": "Univ Granada, Dept Comp Sci & Artificial Intelligence, E-18071 Granada, Spain",
            "name": "Spain",
            "lat": 37.1397,
            "lng": -3.692,
            "src": "ai",
            "model": "Aliyun:qwen-coder-turbo-latest"
        },
        {
            "address": "Nanjing Univ Aeronaut & Astronaut, Coll Econ & Management, Nanjing 211106, China",
            "name": "China",
            "lat": 35.8617,
            "lng": 104.1954,
            "src": "ai",
            "model": "Aliyun:qwen-coder-plus-latest"
        },
        {
            "address": "Chinese Acad Sci, Inst Sci & Dev, Beijing 100190, China",
            "name": "China",
            "lat": 35.8617,
            "lng": 104.1954,
            "src": "ai",
            "model": "Aliyun:qwen-plus-2025-12-01"
        },
        {
            "address": "Univ Chinese Acad Sci, Beijing 100049, China",
            "name": "China",
            "lat": 39.9042,
            "lng": 116.4074,
            "src": "ai",
            "model": "Aliyun:qwen-coder-turbo"
        },
        {
            "address": "Nanjing Univ, Sch Social & Behav Sci, Nanjing 210023, China",
            "name": "China",
            "lat": 35.8617,
            "lng": 104.1954,
            "src": "ai",
            "model": "Aliyun:qwen2.5-coder-14b-instruct"
        },
        {
            "address": "Shanghai Jiao Tong Univ, Sch Int & Publ Affairs, Shanghai 200030, China",
            "name": "China",
            "lat": 35.8617,
            "lng": 104.1954,
            "src": "ai",
            "model": "Aliyun:qwen2.5-coder-32b-instruct"
        },
        {
            "address": "Inst Sci & Tech Informat China, Beijing 100038, China",
            "name": "China",
            "lat": 35.8617,
            "lng": 104.1954,
            "src": "ai",
            "model": "Aliyun:qwen3-coder-flash"
        },
        {
            "address": "Beijing Univ Technol, Coll Econ & Management, Beijing 100124, China",
            "name": "China",
            "lat": 35.8617,
            "lng": 104.1954,
            "src": "ai",
            "model": "Aliyun:qwen-turbo-2025-07-15"
        },
        {
            "address": "Shandong Univ Technol, Business Sch, Zibo 255000, China",
            "name": "China",
            "lat": 35.8617,
            "lng": 104.1954,
            "src": "ai",
            "model": "Aliyun:tongyi-xiaomi-analysis-flash"
        },
        {
            "address": "Indiana Univ, Sch Lib & Informat Sci, Bloomington, USA",
            "name": "United States",
            "lat": 37.0902,
            "lng": -95.7129,
            "src": "ai",
            "model": "Aliyun:qwen3-coder-next"
        },
        {
            "address": "Indiana Univ, Sch Informat & Comp, Bloomington, USA",
            "name": "United States",
            "lat": 39.8333,
            "lng": -98.5852,
            "src": "ai",
            "model": "Aliyun:qwen-turbo-2025-04-28"
        },
        {
            "address": "Tsinghua Univ, Dept Comp Sci & Technol, Beijing 100084, China",
            "name": "China",
            "lat": 35.8617,
            "lng": 104.1954,
            "src": "ai",
            "model": "Aliyun:qwen-flash"
        },
        {
            "address": "Univ Zaragoza, Inst Biocomp & Fis Sistemas Complejos, Edificio I D Campus Rio Ebro, Zaragoza 50018, Spain",
            "name": "Spain",
            "lat": 40.4165,
            "lng": -3.7026,
            "src": "ai",
            "model": "Aliyun:qwen-turbo-2024-11-01"
        },
        {
            "address": "Univ Zaragoza, Dept Fis Teor, Campus San Francisco, E-50009 Zaragoza, Spain",
            "name": "Spain",
            "lat": 40.3572,
            "lng": -1.1869,
            "src": "ai",
            "model": "Aliyun:qwen3-30b-a3b-instruct-2507"
        },
        {
            "address": "Fdn ARAID, Diputac Gen Aragon, Zaragoza 50004, Spain",
            "name": "Spain",
            "lat": 40.4168,
            "lng": -3.7038,
            "src": "ai",
            "model": "Aliyun:qwen-turbo-latest"
        },
        {
            "address": "Univ Sao Paulo, Inst Phys Sao Carlos, BR-05508 Sao Paulo, Brazil",
            "name": "Brazil",
            "lat": -14.235,
            "lng": -51.9253,
            "src": "ai",
            "model": "Aliyun:qwen3-coder-480b-a35b-instruct"
        },
        {
            "address": "Univ Sao Paulo, Inst Math & Comp Sci, Natl Inst Sci & Technol Complex Syst, Rio De Janeiro, Brazil",
            "name": "Brazil",
            "lat": -10.0,
            "lng": -55.0,
            "src": "ai",
            "model": "Aliyun:tongyi-xiaomi-analysis-pro"
        },
        {
            "address": "Natl Res Univ Higher Sch Econ, Ctr Inst Studies, Pokrovsky Blvd 11, Moscow 101000, Russia",
            "name": "Russia",
            "lat": 61.524,
            "lng": 104.2334,
            "src": "ai",
            "model": "Aliyun:qwen2.5-14b-instruct"
        },
        {
            "address": "Natl Res Univ Higher Sch Econ, Scientometr Ctr, Pokrovsky Blvd 11, Moscow 101000, Russia",
            "name": "Russia",
            "lat": 55.7558,
            "lng": 37.6173,
            "src": "ai",
            "model": "Aliyun:codeqwen1.5-7b-chat"
        },
        {
            "address": "Natl Res Univ Higher Sch Econ, Ctr Inst Studies, Pokrovsky Blvd 11, Moscow 109028, Russia",
            "name": "Russia",
            "lat": 61.524,
            "lng": 105.3188,
            "src": "ai",
            "model": "Aliyun:qwen3-coder-plus-2025-07-22"
        },
        {
            "address": "CNR, IASI, Inst Syst Anal & Comp Sci IASI, Lab Studies Res Evaluat,Natl Res Council Italy, Via Taurini 19, I-00185 Rome, Italy",
            "name": "Italy",
            "lat": 41.89193,
            "lng": 12.51133,
            "src": "ai",
            "model": "Aliyun:qwen-turbo"
        },
        {
            "address": "Univ Thessaloniki, Dept Phys, Thessaloniki 54124, Greece",
            "name": "Greece",
            "lat": 39.0742,
            "lng": 21.8243,
            "src": "ai",
            "model": "Aliyun:deepseek-v3.1"
        },
        {
            "address": "Ctr Complex Syst, Thessaloniki 54124, Greece",
            "name": "Greece",
            "lat": 39.0,
            "lng": 21.0,
            "src": "ai",
            "model": "Aliyun:qwen2.5-32b-instruct"
        },
        {
            "address": "Bar Ilan Univ, Dept Phys, IL-52900 Ramat Gan, Israel",
            "name": "Israel",
            "lat": 31.0461,
            "lng": 34.8516,
            "src": "ai",
            "model": "Aliyun:qwen-plus-2025-07-14"
        },
        {
            "address": "Univ Pittsburgh, Sch Comp & Informat, 135 N Bellefield Ave, Pittsburgh, USA",
            "name": "United States",
            "lat": 39.9542,
            "lng": -79.9589,
            "src": "ai",
            "model": "Aliyun:qwen2.5-7b-instruct-1m"
        },
        {
            "address": "Zhejiang Univ, Dept Sociol, 866 Yuhangtang Rd, Hangzhou 310058, Zhejiang, China",
            "name": "China",
            "lat": 35.8617,
            "lng": 104.1954,
            "src": "ai",
            "model": "Aliyun:qwen3-next-80b-a3b-instruct"
        },
        {
            "address": "Wolverhampton Univ, Sch Technol, Stat Cybermetr Res Grp, Wolverhampton WV1 1SB, UK",
            "name": "United Kingdom",
            "lat": 52.4796,
            "lng": -1.8942,
            "src": "ai",
            "model": "Aliyun:qwen-coder-turbo-0919"
        },
        {
            "address": "Natl Res Univ, Inst Stat Studies & Econ Knowledge, Higher Sch Econ, 20 Myasnitskaya Ulitsa, Moscow 101000, Russia",
            "name": "Russia",
            "lat": 55.7512,
            "lng": 37.6184,
            "src": "ai",
            "model": "Aliyun:qwen2.5-7b-instruct"
        },
        {
            "address": "Amer Assoc Advancement Sci, 1200 New York Ave NW, Washington, USA",
            "name": "United States",
            "lat": 37.0902,
            "lng": -95.7129,
            "src": "ai",
            "model": "Aliyun:qwen-plus-2025-04-28"
        },
        {
            "address": "COLLNET Ctr, D-16540 Hohen Neuendorf, Germany",
            "name": "Germany",
            "lat": 51.1657,
            "lng": 10.4515,
            "src": "ai",
            "model": "Aliyun:qwen-coder-plus-1106"
        },
        {
            "address": "Williams Coll, Williamstown, USA",
            "name": "United States",
            "lat": 38.2427,
            "lng": -77.6883,
            "src": "ai",
            "model": "Aliyun:qwen-coder-turbo-latest"
        },
        {
            "address": "Univ Jaume 1, Dept Econ, Castellon De La Plana, Spain",
            "name": "Spain",
            "lat": 40.4637,
            "lng": -3.7492,
            "src": "ai",
            "model": "Aliyun:qwen-coder-plus-latest"
        },
        {
            "address": "Dept Comp Sci & Software Engn, Islamabad 44000, Pakistan",
            "name": "Pakistan",
            "lat": 30.3753,
            "lng": 69.3451,
            "src": "ai",
            "model": "Aliyun:qwen-plus-2025-12-01"
        },
        {
            "address": "Sun Yat Sen Univ, Sch Informat Management, Guangzhou 510275, Guangdong, China",
            "name": "China",
            "lat": 35.1035,
            "lng": 113.2644,
            "src": "ai",
            "model": "Aliyun:qwen-coder-turbo"
        },
        {
            "address": "Yonsei Univ, Dept Lib & Informat Sci, Seoul 120140, South Korea",
            "name": "South Korea",
            "lat": 35.9078,
            "lng": 127.7669,
            "src": "ai",
            "model": "Aliyun:qwen2.5-coder-14b-instruct"
        },
        {
            "address": "Wuhan Univ, Sch Informat Management, Wuhan, China",
            "name": "China",
            "lat": 35.8617,
            "lng": 104.1954,
            "src": "ai",
            "model": "Aliyun:qwen2.5-coder-32b-instruct"
        },
        {
            "address": "King Abdulaziz Univ, Fac Comp & Informat Technol, Jeddah, Saudi Arabia",
            "name": "Saudi Arabia",
            "lat": 24.0,
            "lng": 45.0,
            "src": "ai",
            "model": "Aliyun:qwen3-coder-flash"
        },
        {
            "address": "Tongji Univ, Lib, Shanghai, China",
            "name": "China",
            "lat": 35.8617,
            "lng": 104.1954,
            "src": "ai",
            "model": "Aliyun:qwen-turbo-2025-07-15"
        },
        {
            "address": "Royal Sch Library & Informat Sci, DK-2300 Copenhagen, Denmark",
            "name": "Denmark",
            "lat": 55.6761,
            "lng": 12.5683,
            "src": "ai",
            "model": "Aliyun:tongyi-xiaomi-analysis-flash"
        },
        {
            "address": "Bar Ilan Univ, Dept Informat Sci, IL-52900 Ramat Gan, Israel",
            "name": "Israel",
            "lat": 31.0461,
            "lng": 34.8516,
            "src": "ai",
            "model": "Aliyun:qwen3-coder-next"
        },
        {
            "address": "Wolverhampton Univ, Sch Comp & Informat Technol, Wolverhampton WV1 1SB, UK",
            "name": "United Kingdom",
            "lat": 55.3781,
            "lng": -3.436,
            "src": "ai",
            "model": "Aliyun:qwen-turbo-2025-04-28"
        },
        {
            "address": "Nanjing Univ, Lab Data Intelligence & Interdisciplinary Innovat, Nanjing, China",
            "name": "China",
            "lat": 32.0623,
            "lng": 118.7897,
            "src": "ai",
            "model": "Aliyun:qwen-flash"
        },
        {
            "address": "Nanjing Univ Finance & Econ, Coll Informat Engn, Nanjing, China",
            "name": "China",
            "lat": 35.8617,
            "lng": 104.1954,
            "src": "ai",
            "model": "Aliyun:qwen-turbo-2024-11-01"
        },
        {
            "address": "Louisiana State Univ, Dept Math, Baton Rouge, USA",
            "name": "United States",
            "lat": 34.5268,
            "lng": -90.7175,
            "src": "ai",
            "model": "Aliyun:qwen3-30b-a3b-instruct-2507"
        },
        {
            "address": "Sofia Univ St Kliment Ohridski, Univ Lib, 1 James Bourchier Blvd, Sofia 1164, Bulgaria",
            "name": "Bulgaria",
            "lat": 42.7339,
            "lng": 23.3186,
            "src": "ai",
            "model": "Aliyun:qwen-turbo-latest"
        },
        {
            "address": "China Agr Univ Lib, Beijing, China",
            "name": "China",
            "lat": 35.8617,
            "lng": 104.1954,
            "src": "ai",
            "model": "Aliyun:qwen3-coder-480b-a35b-instruct"
        },
        {
            "address": "Univ Montreal, Ecole Bibliothecon & Sci Informat, Montreal, PQ H3C 3J7, Canada",
            "name": "Canada",
            "lat": 56.1304,
            "lng": -106.3468,
            "src": "ai",
            "model": "Aliyun:tongyi-xiaomi-analysis-pro"
        },
        {
            "address": "Univ Montreal, Ecole Bibliothecon & Sci Informat, Montreal, PQ, Canada",
            "name": "Canada",
            "lat": 62.3093,
            "lng": -96.3756,
            "src": "ai",
            "model": "Aliyun:qwen2.5-14b-instruct"
        },
        {
            "address": "Univ Quebec, OST, CIRST, Montreal, PQ H3C 3P8, Canada",
            "name": "Canada",
            "lat": 45.5017,
            "lng": -73.5673,
            "src": "ai",
            "model": "Aliyun:codeqwen1.5-7b-chat"
        },
        {
            "address": "Leiden Univ, Ctr Sci & Technol Studies CWTS, NL-2300 RA Leiden, Netherlands",
            "name": "Netherlands",
            "lat": 52.1326,
            "lng": 5.2913,
            "src": "ai",
            "model": "Aliyun:qwen3-coder-plus-2025-07-22"
        },
        {
            "address": "Univ Navarra, Ctr Invest Med Aplicada, E-31080 Pamplona, Spain",
            "name": "Spain",
            "lat": 40.4637,
            "lng": -3.7492,
            "src": "ai",
            "model": "Aliyun:qwen-turbo"
        },
        {
            "address": "Univ Amsterdam, Amsterdam Sch Commun Res ASCoR, NL-1012 WX Amsterdam, Netherlands",
            "name": "Netherlands",
            "lat": 52.1326,
            "lng": 5.2913,
            "src": "ai",
            "model": "Aliyun:deepseek-v3.1"
        },
        {
            "address": "Univ Lyon, Lyon, France",
            "name": "France",
            "lat": 46.2276,
            "lng": 2.2137,
            "src": "ai",
            "model": "Aliyun:qwen2.5-32b-instruct"
        },
        {
            "address": "Univ Lyon 1, Inst Camille Jordan, CNRS UMR 5208, F-69622 Villeurbanne, France",
            "name": "France",
            "lat": 46.2276,
            "lng": 2.2137,
            "src": "ai",
            "model": "Aliyun:qwen-plus-2025-07-14"
        },
        {
            "address": "Univ Lyon 1, ELICO, F-69622 Villeurbanne, France",
            "name": "France",
            "lat": 45.76426,
            "lng": 4.83566,
            "src": "ai",
            "model": "Aliyun:qwen2.5-7b-instruct-1m"
        },
        {
            "address": "Natl Taiwan Univ Sci & Technol, Grad Inst Patent, 43,Sec 4,Keelung Rd, Taipei 10607, Taiwan(China)",
            "name": "Taiwan (China)",
            "lat": 23.6978,
            "lng": 120.9605,
            "src": "ai",
            "model": "Aliyun:qwen3-next-80b-a3b-instruct"
        },
        {
            "address": "Natl Taiwan Univ, Dept Lib & Informat Sci, 1,Sec 4,Roosevelt Rd, Taipei 10617, Taiwan(China)",
            "name": "Taiwan (China)",
            "lat": 25.033,
            "lng": 121.564,
            "src": "ai",
            "model": "Aliyun:qwen-coder-turbo-0919"
        },
        {
            "address": "Natl Taiwan Univ, Dept Mech Engn, 1,Sec 4,Roosevelt Rd, Taipei 10617, Taiwan(China)",
            "name": "Taiwan (China)",
            "lat": 25.03337,
            "lng": 121.56358,
            "src": "ai",
            "model": "Aliyun:qwen2.5-7b-instruct"
        },
        {
            "address": "Natl Taiwan Univ, Inst Ind Engn, 1,Sec 4,Roosevelt Rd, Taipei 10617, Taiwan(China)",
            "name": "Taiwan (China)",
            "lat": 23.6978,
            "lng": 120.9605,
            "src": "ai",
            "model": "Aliyun:qwen-plus-2025-04-28"
        },
        {
            "address": "Univ Ljubljana, Fac Civil & Geodet Engn, Ljubljana 1000, Slovenia",
            "name": "Slovenia",
            "lat": 46.1512,
            "lng": 14.9955,
            "src": "ai",
            "model": "Aliyun:qwen-coder-plus-1106"
        },
        {
            "address": "Univ Roma Tor Vergata, Dipartimento Ingn Impresa, I-00133 Rome, Italy",
            "name": "Italy",
            "lat": 41.9028,
            "lng": 12.4964,
            "src": "ai",
            "model": "Aliyun:qwen-coder-turbo-latest"
        },
        {
            "address": "Univ Salerno, Dipartimento Sci Econ & Stat, Fisciano, Italy",
            "name": "Italy",
            "lat": 41.8719,
            "lng": 12.5674,
            "src": "ai",
            "model": "Aliyun:qwen-coder-plus-latest"
        },
        {
            "address": "Univ Bari A Moro, Dipartimento Econ Management & Diritto Impresa, Bari, Italy",
            "name": "Italy",
            "lat": 41.8719,
            "lng": 12.5674,
            "src": "ai",
            "model": "Aliyun:qwen-plus-2025-12-01"
        },
        {
            "address": "Nanjing Univ Sci & Technol, Sch Econ & Management, Nanjing, China",
            "name": "China",
            "lat": 31.2304,
            "lng": 121.4737,
            "src": "ai",
            "model": "Aliyun:qwen-coder-turbo"
        },
        {
            "address": "Wuhan Univ, Ctr Studies Informat Resources, Wuhan, China",
            "name": "China",
            "lat": 35.8617,
            "lng": 104.1954,
            "src": "ai",
            "model": "Aliyun:qwen2.5-coder-14b-instruct"
        },
        {
            "address": "Nanjing Univ, Sch Informat Management, Nanjing 210032, China",
            "name": "China",
            "lat": 35.8617,
            "lng": 104.1954,
            "src": "ai",
            "model": "Aliyun:qwen2.5-coder-32b-instruct"
        },
        {
            "address": "Peking Univ, Dept Informat Management, Beijing 100871, China",
            "name": "China",
            "lat": 35.8617,
            "lng": 104.1954,
            "src": "ai",
            "model": "Aliyun:qwen3-coder-flash"
        },
        {
            "address": "Nanjing Univ, Nanjing 210032, China",
            "name": "China",
            "lat": 35.8617,
            "lng": 104.1954,
            "src": "ai",
            "model": "Aliyun:qwen-turbo-2025-07-15"
        },
        {
            "address": "San Jose State Univ, Lucas Coll, One Washington Sq, San Jose, USA",
            "name": "United States",
            "lat": 37.7749,
            "lng": -97.4267,
            "src": "ai",
            "model": "Aliyun:tongyi-xiaomi-analysis-flash"
        },
        {
            "address": "San Jose State Univ, Grad Sch Business, MIS Dept, One Washington Sq, San Jose, USA",
            "name": "United States",
            "lat": 37.0902,
            "lng": -95.7129,
            "src": "ai",
            "model": "Aliyun:qwen3-coder-next"
        },
        {
            "address": "Indiana Univ, Sch Informat & Comp, Dept Info & Lib Sci, Wells Lib, Room 027,1320 E 10th St, Bloomington, USA",
            "name": "United States",
            "lat": 37.751,
            "lng": -96.799,
            "src": "ai",
            "model": "Aliyun:qwen-turbo-2025-04-28"
        },
        {
            "address": "Dalian Maritime Univ, Coll Transportat Management, Dept Management Sci & Engn, Room 211,Guanli Bldg,1 Linghai Rd, Dalian 116026, Liaoning Provin, China",
            "name": "China",
            "lat": 35.8617,
            "lng": 104.1954,
            "src": "ai",
            "model": "Aliyun:qwen-flash"
        },
        {
            "address": "Indiana Univ, Sch Informat & Comp, Dept Info & Lib Sci, Wells Lib, Room 017,1320 E 10th St, Bloomington, USA",
            "name": "United States",
            "lat": 37.09024,
            "lng": -95.71289,
            "src": "ai",
            "model": "Aliyun:qwen-turbo-2024-11-01"
        },
        {
            "address": "Leiden Univ, Ctr Sci & Technol Studies CWTS, NL-2333 AK Leiden, Netherlands",
            "name": "Netherlands",
            "lat": 52.1307,
            "lng": 4.4976,
            "src": "ai",
            "model": "Aliyun:qwen3-30b-a3b-instruct-2507"
        },
        {
            "address": "Nanjing Univ, Res Inst Data Management Innovat, Suzhou, China",
            "name": "China",
            "lat": 35.8617,
            "lng": 104.1954,
            "src": "ai",
            "model": "Aliyun:qwen-turbo-latest"
        },
        {
            "address": "China Univ Petr East, Sch Econ & Management, Qingdao, China",
            "name": "China",
            "lat": 35.8617,
            "lng": 104.1954,
            "src": "ai",
            "model": "Aliyun:qwen3-coder-480b-a35b-instruct"
        },
        {
            "address": "Univ Tecnol Fed Parana, Dept Ind Engn, Av Monteiro Lobato S-N, BR-84016210 Ponta Grossa, Parana, Brazil",
            "name": "Brazil",
            "lat": -10.0,
            "lng": -55.0,
            "src": "ai",
            "model": "Aliyun:tongyi-xiaomi-analysis-pro"
        },
        {
            "address": "Univ Fed Santa Maria, CCNE, Av Roraima 1000,Bldg 13,Off 1205 C, BR-97105900 Santa Maria, RS, Brazil",
            "name": "Brazil",
            "lat": -14.235,
            "lng": -55.2252,
            "src": "ai",
            "model": "Aliyun:qwen2.5-14b-instruct"
        },
        {
            "address": "Univ Tecnol Fed Parana, Ave Sete Setembro 3165, BR-80230901 Curitiba, Parana, Brazil",
            "name": "Brazil",
            "lat": -25.425,
            "lng": -49.2574,
            "src": "ai",
            "model": "Aliyun:codeqwen1.5-7b-chat"
        },
        {
            "address": "Univ Fed Parana, Sch Management, Ave Lothario Meissner 632, BR-80210170 Curitiba, Parana, Brazil",
            "name": "Brazil",
            "lat": -14.235,
            "lng": -51.9253,
            "src": "ai",
            "model": "Aliyun:qwen3-coder-plus-2025-07-22"
        },
        {
            "address": "Drexel Univ, Coll Comp & Informat, Philadelphia, USA",
            "name": "United States",
            "lat": 37.0902,
            "lng": -95.7129,
            "src": "ai",
            "model": "Aliyun:qwen-turbo"
        },
        {
            "address": "INRA Lereco, F-44316 Nantes 03, France",
            "name": "France",
            "lat": 46.2276,
            "lng": 2.2137,
            "src": "ai",
            "model": "Aliyun:deepseek-v3.1"
        },
        {
            "address": "OST, Paris, France",
            "name": "France",
            "lat": 46.2276,
            "lng": 2.2137,
            "src": "ai",
            "model": "Aliyun:qwen2.5-32b-instruct"
        },
        {
            "address": "Sapienza Univ Rome, Dept Comp Control & Management Engn DIAG, Via Ariosto 25, I-00185 Rome, Italy",
            "name": "Italy",
            "lat": 41.8719,
            "lng": 12.5674,
            "src": "ai",
            "model": "Aliyun:qwen-plus-2025-07-14"
        },
        {
            "address": "Gdansk Univ Technol, Fac Management & Econ, Narutowicza 11-12, PL-80233 Gdansk, Poland",
            "name": "Poland",
            "lat": 54.3557,
            "lng": 18.6415,
            "src": "ai",
            "model": "Aliyun:qwen2.5-7b-instruct-1m"
        },
        {
            "address": "Blockchain Res Lab, Max Brauer Allee 46, D-22765 Hamburg, Germany",
            "name": "Germany",
            "lat": 51.5141,
            "lng": 10.3775,
            "src": "ai",
            "model": "Aliyun:qwen3-next-80b-a3b-instruct"
        },
        {
            "address": "Univ Hamburg, Von Melle Pk 5, D-20146 Hamburg, Germany",
            "name": "Germany",
            "lat": 52.3702,
            "lng": 13.3887,
            "src": "ai",
            "model": "Aliyun:qwen-coder-turbo-0919"
        },
        {
            "address": "KHBO, Assoc KU Leuven, B-8400 Oostende, Belgium",
            "name": "Belgium",
            "lat": 50.8503,
            "lng": 4.0513,
            "src": "ai",
            "model": "Aliyun:qwen2.5-7b-instruct"
        },
        {
            "address": "Zhejiang Univ, NIIM, Hangzhou, Zhejiang, China",
            "name": "China",
            "lat": 35.8617,
            "lng": 104.1954,
            "src": "ai",
            "model": "Aliyun:qwen-plus-2025-04-28"
        },
        {
            "address": "Katholieke Univ Leuven, Steunpunt O&O Indicatoren & Dept MSI, B-3000 Louvain, Belgium",
            "name": "Belgium",
            "lat": 50.5039,
            "lng": 4.4699,
            "src": "ai",
            "model": "Aliyun:qwen-coder-plus-1106"
        },
        {
            "address": "Wuhan Univ, Sch Resource & Environm Sci, Wuhan 430079, China",
            "name": "China",
            "lat": 30.5928,
            "lng": 114.3055,
            "src": "ai",
            "model": "Aliyun:qwen-coder-turbo-latest"
        },
        {
            "address": "Wuhan Univ, Int Sch Software, Wuhan 430079, China",
            "name": "China",
            "lat": 35.8617,
            "lng": 104.1954,
            "src": "ai",
            "model": "Aliyun:qwen-coder-plus-latest"
        },
        {
            "address": "Radboud Univ Nijmegen, Nijmegen Sch Management, Heyendaalseweg 141, NL-6525 AJ Nijmegen, Netherlands",
            "name": "Netherlands",
            "lat": 52.1326,
            "lng": 5.2913,
            "src": "ai",
            "model": "Aliyun:qwen-plus-2025-12-01"
        },
        {
            "address": "LUISS Guido Carli Univ, Dept Business & Management, Viale Romania,32, I-00197 Rome, Italy",
            "name": "Italy",
            "lat": 41.9029,
            "lng": 12.4964,
            "src": "ai",
            "model": "Aliyun:qwen-coder-turbo"
        },
        {
            "address": "Univ Lugano, Fac Commun Culture & Soc, Via Buffi 13, CH-6900 Lugano, Switzerland",
            "name": "Switzerland",
            "lat": 46.8182,
            "lng": 8.2275,
            "src": "ai",
            "model": "Aliyun:qwen2.5-coder-14b-instruct"
        },
        {
            "address": "Ludwig Maximilians Univ Munchen, Inst Leadership & Org, Geschwister Scholl Pl 1, D-80539 Munich, Germany",
            "name": "Germany",
            "lat": 51.1657,
            "lng": 10.4515,
            "src": "ai",
            "model": "Aliyun:qwen2.5-coder-32b-instruct"
        },
        {
            "address": "Cent China Normal Univ, Sch Informat Management, Wuhan 430079, China",
            "name": "China",
            "lat": 35.8617,
            "lng": 104.1954,
            "src": "ai",
            "model": "Aliyun:qwen3-coder-flash"
        },
        {
            "address": "Univ North Texas, Dept Informat Sci, Denton, USA",
            "name": "United States",
            "lat": 39.8283,
            "lng": -98.5795,
            "src": "ai",
            "model": "Aliyun:qwen-turbo-2025-07-15"
        },
        {
            "address": "Univ North Texas, Intelligent Data Engn & Analyt Lab, Denton, USA",
            "name": "United States",
            "lat": 39.7696,
            "lng": -94.9668,
            "src": "ai",
            "model": "Aliyun:tongyi-xiaomi-analysis-flash"
        },
        {
            "address": "Univ Illinois, Sch Informat Sci, Champaign, USA",
            "name": "United States",
            "lat": 37.0902,
            "lng": -95.7129,
            "src": "ai",
            "model": "Aliyun:qwen3-coder-next"
        },
        {
            "address": "Leiden Univ, Ctr Sci & Technol Studies, NL-2300 AX Leiden, Netherlands",
            "name": "Netherlands",
            "lat": 52.3676,
            "lng": 4.9046,
            "src": "ai",
            "model": "Aliyun:qwen-turbo-2025-04-28"
        },
        {
            "address": "Yonsei Univ, Dept Lib & Informat Sci, Seoul 120749, South Korea",
            "name": "South Korea",
            "lat": 35.9078,
            "lng": 127.7669,
            "src": "ai",
            "model": "Aliyun:qwen-flash"
        },
        {
            "address": "Indiana Univ, Dept Informat & Lib Sci, Bloomington, USA",
            "name": "United States",
            "lat": 37.09024,
            "lng": -95.71289,
            "src": "ai",
            "model": "Aliyun:qwen-turbo-2024-11-01"
        },
        {
            "address": "Univ Fribourg, Dept Phys, CH-1700 Fribourg, Switzerland",
            "name": "Switzerland",
            "lat": 46.8182,
            "lng": 7.5932,
            "src": "ai",
            "model": "Aliyun:qwen3-30b-a3b-instruct-2507"
        },
        {
            "address": "Chinese Acad Sci, Chongqing Inst Green & Intelligent Technol, Chongqing 400714, China",
            "name": "China",
            "lat": 35.8617,
            "lng": 104.1954,
            "src": "ai",
            "model": "Aliyun:qwen-turbo-latest"
        },
        {
            "address": "Univ Sussex, SPRU, Brighton, E Sussex, UK",
            "name": "United Kingdom",
            "lat": 54.0,
            "lng": -2.0,
            "src": "ai",
            "model": "Aliyun:qwen3-coder-480b-a35b-instruct"
        },
        {
            "address": "Zhejiang Univ, Dept Informat Resource Management, Hangzhou 310027, China",
            "name": "China",
            "lat": 35.8617,
            "lng": 104.1954,
            "src": "ai",
            "model": "Aliyun:tongyi-xiaomi-analysis-pro"
        },
        {
            "address": "Tsinghua Univ, Sch Publ Policy & Management, Beijing 100084, China",
            "name": "China",
            "lat": 35.8617,
            "lng": 104.1954,
            "src": "ai",
            "model": "Aliyun:qwen2.5-14b-instruct"
        },
        {
            "address": "Nanjing Univ, Sch Informat Management, Nanjing 210093, Jiangsu, China",
            "name": "China",
            "lat": 31.2304,
            "lng": 121.4737,
            "src": "ai",
            "model": "Aliyun:codeqwen1.5-7b-chat"
        },
        {
            "address": "Univ Tennessee, Coll Commun & Informat, Sch Informat Sci, Knoxville, USA",
            "name": "United States",
            "lat": 37.0902,
            "lng": -95.7129,
            "src": "ai",
            "model": "Aliyun:qwen3-coder-plus-2025-07-22"
        },
        {
            "address": "Adm Headquarters Max Planck Soc, Div Sci & Innovat Studies, Hofgartenstr 8, D-80539 Munich, Germany",
            "name": "Germany",
            "lat": 51.1657,
            "lng": 10.4515,
            "src": "ai",
            "model": "Aliyun:qwen-turbo"
        },
        {
            "address": "Shanxi Univ, Sch Management, Taiyuan 030006, Shanxi, China",
            "name": "China",
            "lat": 35.8617,
            "lng": 104.1954,
            "src": "ai",
            "model": "Aliyun:deepseek-v3.1"
        },
        {
            "address": "Shanxi Univ, Div Dev & Planning, Taiyuan 030006, Shanxi, China",
            "name": "China",
            "lat": 35.8617,
            "lng": 104.1954,
            "src": "ai",
            "model": "Aliyun:qwen2.5-32b-instruct"
        },
        {
            "address": "Lublin Univ Technol, Lublin, Poland",
            "name": "Poland",
            "lat": 52.23705,
            "lng": 19.13394,
            "src": "ai",
            "model": "Aliyun:qwen-plus-2025-07-14"
        },
        {
            "address": "Renmin Univ China, Sch Business, Beijing 100872, China",
            "name": "China",
            "lat": 35.8617,
            "lng": 104.1954,
            "src": "ai",
            "model": "Aliyun:qwen2.5-7b-instruct-1m"
        },
        {
            "address": "Beihang Univ, Sch Econ & Management, Beijing 100191, China",
            "name": "China",
            "lat": 35.8617,
            "lng": 104.1954,
            "src": "ai",
            "model": "Aliyun:qwen3-next-80b-a3b-instruct"
        },
        {
            "address": "Xidian Univ, Sch Econ & Management, Xian 710126, China",
            "name": "China",
            "lat": 34.25,
            "lng": 108.94,
            "src": "ai",
            "model": "Aliyun:qwen-coder-turbo-0919"
        },
        {
            "address": "Tech Univ Chemnitz, Inst Phys, D-09107 Chemnitz, Germany",
            "name": "Germany",
            "lat": 51.0022,
            "lng": 13.7699,
            "src": "ai",
            "model": "Aliyun:qwen2.5-7b-instruct"
        },
        {
            "address": "Erasmus Univ, Erasmus Sch Econ, Inst Econometr, NL-3000 DR Rotterdam, Netherlands",
            "name": "Netherlands",
            "lat": 52.1326,
            "lng": 5.2913,
            "src": "ai",
            "model": "Aliyun:qwen-plus-2025-04-28"
        },
        {
            "address": "Univ Witwatersrand, Grad Sch Business Adm, 2 St Davids Pl, ZA-2193 Johannesburg, South Africa",
            "name": "South Africa",
            "lat": -29.81748,
            "lng": 26.08485,
            "src": "ai",
            "model": "Aliyun:qwen-coder-plus-1106"
        },
        {
            "address": "Univ Pisa, Dipartimento Fis Enrico Fermi, I-56127 Pisa, Italy",
            "name": "Italy",
            "lat": 43.7102,
            "lng": 11.2558,
            "src": "ai",
            "model": "Aliyun:qwen-coder-turbo-latest"
        },
        {
            "address": "Yonsei Univ, Dept Sociol, Seoul, South Korea",
            "name": "South Korea",
            "lat": 35.9078,
            "lng": 127.7605,
            "src": "ai",
            "model": "Aliyun:qwen-coder-plus-latest"
        },
        {
            "address": "Soongsil Univ, Sch AI Convergence, Seoul, South Korea",
            "name": "South Korea",
            "lat": 36.5574,
            "lng": 126.9758,
            "src": "ai",
            "model": "Aliyun:qwen-plus-2025-12-01"
        },
        {
            "address": "Nanjing Med Univ, Nanjing 210029, Jiangsu, China",
            "name": "China",
            "lat": 31.2304,
            "lng": 121.4737,
            "src": "ai",
            "model": "Aliyun:qwen-coder-turbo"
        },
        {
            "address": "Nanjing Univ, Sch Elect Sci & Engn, State Key Lab Analyt Chem Life Sci, Nanjing 210093, Jiangsu, China",
            "name": "China",
            "lat": 35.8617,
            "lng": 104.1954,
            "src": "ai",
            "model": "Aliyun:qwen2.5-coder-14b-instruct"
        },
        {
            "address": "Swiss Fed Inst Technol, Professorship Social Psychol & Res Higher Educ, Muehlegasse 21, CH-8001 Zurich, Switzerland",
            "name": "Switzerland",
            "lat": 46.8182,
            "lng": 8.2275,
            "src": "ai",
            "model": "Aliyun:qwen2.5-coder-32b-instruct"
        },
        {
            "address": "Univ Complutense, Dept Metodol, Fac Psicol, Madrid 28223, Spain",
            "name": "Spain",
            "lat": 40.4637,
            "lng": -3.7492,
            "src": "ai",
            "model": "Aliyun:qwen3-coder-flash"
        },
        {
            "address": "Indiana Univ, Ctr Complex Networks & Syst Res, Sch Informat Comp & Engn, Bloomington, USA",
            "name": "United States",
            "lat": 37.0902,
            "lng": -95.7129,
            "src": "ai",
            "model": "Aliyun:qwen-turbo-2025-07-15"
        },
        {
            "address": "Cumhuriyet Univ, Fac Educ, TR-58100 Sivas, Turkey",
            "name": "Turkey",
            "lat": 38.9878,
            "lng": 35.6828,
            "src": "ai",
            "model": "Aliyun:tongyi-xiaomi-analysis-flash"
        },
        {
            "address": "Univ Valencia, Dept Hist Ciencia & Documentac, E-46003 Valencia, Spain",
            "name": "Spain",
            "lat": 40.46367,
            "lng": -3.74922,
            "src": "ai",
            "model": "Aliyun:qwen3-coder-next"
        },
        {
            "address": "Univ Catolica Valencia San Vicente Martir, Inst Documentac & Tecnol Informac, Plaza Cisneros 4, Valencia, Spain",
            "name": "Spain",
            "lat": 40.4637,
            "lng": -3.7492,
            "src": "ai",
            "model": "Aliyun:qwen-turbo-2025-04-28"
        },
        {
            "address": "Ingenio CSIC UPV, Valencia, Spain",
            "name": "Spain",
            "lat": 40.4168,
            "lng": -3.7038,
            "src": "ai",
            "model": "Aliyun:qwen-flash"
        },
        {
            "address": "UISYS Univ Valencia, Valencia, Spain",
            "name": "Spain",
            "lat": 40.4165,
            "lng": -3.7026,
            "src": "ai",
            "model": "Aliyun:qwen-turbo-2024-11-01"
        },
        {
            "address": "Univ Tehran, Inst Biochem & Biophys, Lab Syst Biol & Bioinformat LBB, Tehran, Iran",
            "name": "Iran",
            "lat": 35.6892,
            "lng": 51.389,
            "src": "ai",
            "model": "Aliyun:qwen3-30b-a3b-instruct-2507"
        },
        {
            "address": "Sharif Univ Technol, Dept Comp Engn, Tehran, Iran",
            "name": "Iran",
            "lat": 32.4365,
            "lng": 53.6871,
            "src": "ai",
            "model": "Aliyun:qwen-turbo-latest"
        },
        {
            "address": "Univ Tehran, Coll Engn, Dept Algorithms & Computat, Tehran, Iran",
            "name": "Iran",
            "lat": 32.4279,
            "lng": 53.688,
            "src": "ai",
            "model": "Aliyun:qwen3-coder-480b-a35b-instruct"
        },
        {
            "address": "LAMSADE, CNRS, UMR 7243, Pl Marechal de Lattre de Tassigny, F-75775 Paris 16, France",
            "name": "France",
            "lat": 46.22764,
            "lng": 2.21375,
            "src": "ai",
            "model": "Aliyun:tongyi-xiaomi-analysis-pro"
        },
        {
            "address": "Univ Paris 09, Pl Marechal de Lattre de Tassigny, F-75775 Paris 16, France",
            "name": "France",
            "lat": 46.2276,
            "lng": 2.2137,
            "src": "ai",
            "model": "Aliyun:qwen2.5-14b-instruct"
        },
        {
            "address": "Univ Ghent, Dept Data Anal, H Dunantlaan 1, B-9000 Ghent, Belgium",
            "name": "Belgium",
            "lat": 51.0474,
            "lng": 4.3554,
            "src": "ai",
            "model": "Aliyun:codeqwen1.5-7b-chat"
        },
        {
            "address": "Univ Melbourne, Dept Management & Mkt, Melbourne, Vic 3010, Australia",
            "name": "Australia",
            "lat": -25.2744,
            "lng": 133.7751,
            "src": "ai",
            "model": "Aliyun:qwen3-coder-plus-2025-07-22"
        },
        {
            "address": "Manchester Business Sch, Manchester M15 6PB, Lancs, UK",
            "name": "United Kingdom",
            "lat": 55.3781,
            "lng": -3.436,
            "src": "ai",
            "model": "Aliyun:qwen-turbo"
        },
        {
            "address": "Univ Bergamo, Dept Econ, Bergamo, Italy",
            "name": "Italy",
            "lat": 41.8719,
            "lng": 12.5674,
            "src": "ai",
            "model": "Aliyun:deepseek-v3.1"
        },
        {
            "address": "Warsaw Univ Technol, Fac Math & Informat Sci, Ul Koszykowa 75, PL-00662 Warsaw, Poland",
            "name": "Poland",
            "lat": 52.1326,
            "lng": 21.0086,
            "src": "ai",
            "model": "Aliyun:qwen2.5-32b-instruct"
        },
        {
            "address": "Polish Acad Sci, Syst Res Inst, Ul Newelska 6, PL-01447 Warsaw, Poland",
            "name": "Poland",
            "lat": 52.23705,
            "lng": 21.01753,
            "src": "ai",
            "model": "Aliyun:qwen-plus-2025-07-14"
        },
        {
            "address": "Warsaw Univ Technol, Fac Phys, Ul Koszykowa 75, PL-00662 Warsaw, Poland",
            "name": "Poland",
            "lat": 52.22967,
            "lng": 21.01223,
            "src": "ai",
            "model": "Aliyun:qwen2.5-7b-instruct-1m"
        },
        {
            "address": "Max Planck Inst Solid State Res, Heisenbergstr 1, D-70569 Stuttgart, Germany",
            "name": "Germany",
            "lat": 51.5236,
            "lng": 9.5338,
            "src": "ai",
            "model": "Aliyun:qwen3-next-80b-a3b-instruct"
        },
        {
            "address": "Adm Headquarters Max Planck Soc, Sci Policy & Strategy Dept, Hofgartenstr 8, D-80539 Munich, Germany",
            "name": "Germany",
            "lat": 48.13722,
            "lng": 11.57556,
            "src": "ai",
            "model": "Aliyun:qwen-coder-turbo-0919"
        },
        {
            "address": "CNR, Inst Syst Anal & Comp Sci IASI CNR, Lab Studies Res Evaluat, Rome, Italy",
            "name": "Italy",
            "lat": 41.9028,
            "lng": 12.4964,
            "src": "ai",
            "model": "Aliyun:qwen2.5-7b-instruct"
        },
        {
            "address": "Univ Roma Tor Vergata, Dept Engn & Management, Rome, Italy",
            "name": "Italy",
            "lat": 42.83333,
            "lng": 12.83333,
            "src": "ai",
            "model": "Aliyun:qwen-plus-2025-04-28"
        },
        {
            "address": "Nanjing Univ Sci & Technol, Sch Econ & Management, Nanjing, Jiangsu, China",
            "name": "China",
            "lat": 35.8617,
            "lng": 104.1954,
            "src": "ai",
            "model": "Aliyun:qwen-coder-plus-1106"
        },
        {
            "address": "Indiana Univ, Sch Informat Comp & Engn, Ctr Complex Networks & Syst Res, Bloomington, USA",
            "name": "United States",
            "lat": 39.1699,
            "lng": -86.5156,
            "src": "ai",
            "model": "Aliyun:qwen-coder-turbo-latest"
        },
        {
            "address": "Shandong Normal Univ, Sch Management Sci & Engn, Jinan, Shandong, China",
            "name": "China",
            "lat": 35.8617,
            "lng": 104.1954,
            "src": "ai",
            "model": "Aliyun:qwen-coder-plus-latest"
        },
        {
            "address": "Univ Texas Austin, Austin, USA",
            "name": "United States",
            "lat": 37.0902,
            "lng": -95.7129,
            "src": "ai",
            "model": "Aliyun:qwen-plus-2025-12-01"
        },
        {
            "address": "ETH, CH-8092 Zurich, Switzerland",
            "name": "Switzerland",
            "lat": 46.8623,
            "lng": 8.3245,
            "src": "ai",
            "model": "Aliyun:qwen-turbo-2025-04-28"
        },
        {
            "address": "Univ Zurich, Evaluat Off, CH-8006 Zurich, Switzerland",
            "name": "Switzerland",
            "lat": 46.8182,
            "lng": 8.2275,
            "src": "ai",
            "model": "Aliyun:qwen2.5-coder-14b-instruct"
        },
        {
            "address": "Beijing Forestry Univ, Sch Econ & Management, Beijing 100083, China",
            "name": "China",
            "lat": 35.8617,
            "lng": 104.1954,
            "src": "ai",
            "model": "Aliyun:qwen2.5-coder-32b-instruct"
        },
        {
            "address": "Beijing Univ Technol, Coll Econ & Management, Res Base Beijing Modern Mfg Dev, Beijing 100124, China",
            "name": "China",
            "lat": 35.8617,
            "lng": 104.1954,
            "src": "ai",
            "model": "Aliyun:qwen3-coder-flash"
        },
        {
            "address": "Agr Informat Inst CAAS, Beijing 100081, China",
            "name": "China",
            "lat": 35.8617,
            "lng": 104.1954,
            "src": "ai",
            "model": "Aliyun:qwen-turbo-2025-07-15"
        },
        {
            "address": "Carleton Univ, Sch Comp Sci, Ottawa, ON, Canada",
            "name": "Canada",
            "lat": 55.9492,
            "lng": -78.6214,
            "src": "ai",
            "model": "Aliyun:tongyi-xiaomi-analysis-flash"
        },
        {
            "address": "Univ Amsterdam, Amsterdam Sch Commun Res ASCoR, NL-1012 CX Amsterdam, Netherlands",
            "name": "Netherlands",
            "lat": 52.1326,
            "lng": 5.2913,
            "src": "ai",
            "model": "Aliyun:qwen3-coder-next"
        },
        {
            "address": "Univ Granada, Fac Comunicac & Documentat, Granada, Spain",
            "name": "Spain",
            "lat": 40.4637,
            "lng": -3.7492,
            "src": "ai",
            "model": "Aliyun:qwen-turbo-2025-04-28"
        },
        {
            "address": "Leiden Univ, CWTS, Leiden, Netherlands",
            "name": "Netherlands",
            "lat": 52.1307,
            "lng": 4.4978,
            "src": "ai",
            "model": "Aliyun:qwen-flash"
        },
        {
            "address": "Stellenbosch Univ, DST NRF Ctr Excellence Scientometr & Sci, Technol & Innovat Policy, Stellenbosch, South Africa",
            "name": "South Africa",
            "lat": -29.0,
            "lng": 24.0,
            "src": "ai",
            "model": "Aliyun:qwen-turbo-2024-11-01"
        },
        {
            "address": "Shenzhen Univ, Coll Management, Shenzhen 518060, China",
            "name": "China",
            "lat": 35.8617,
            "lng": 104.1954,
            "src": "ai",
            "model": "Aliyun:qwen3-30b-a3b-instruct-2507"
        },
        {
            "address": "Univ Chinese Acad Sci, Sch Publ Policy & Management, Beijing 100049, China",
            "name": "China",
            "lat": 35.8617,
            "lng": 104.1954,
            "src": "ai",
            "model": "Aliyun:qwen-turbo-latest"
        },
        {
            "address": "Univ Chinese Acad Sci, Sch Econ & Management, Beijing 100190, China",
            "name": "China",
            "lat": 35.8617,
            "lng": 104.1954,
            "src": "ai",
            "model": "Aliyun:qwen3-coder-480b-a35b-instruct"
        },
        {
            "address": "Univ Nordland, Fac Biosci & Aquaculture, N-8049 Bodo, Norway",
            "name": "Norway",
            "lat": 60.472,
            "lng": 8.4689,
            "src": "ai",
            "model": "Aliyun:tongyi-xiaomi-analysis-pro"
        },
        {
            "address": "Univ Calif Los Angeles, Ctr Embedded Networked Sensing, Los Angeles, USA",
            "name": "United States",
            "lat": 37.0902,
            "lng": -95.7129,
            "src": "ai",
            "model": "Aliyun:qwen2.5-14b-instruct"
        },
        {
            "address": "Los Alamos Natl Lab, Ctr Non Linear Studies, T 7, Los Alamos, USA",
            "name": "United States",
            "lat": 35.95106,
            "lng": -106.49822,
            "src": "ai",
            "model": "Aliyun:codeqwen1.5-7b-chat"
        },
        {
            "address": "GESIS Leibniz Inst Social Sci, Unter Sachsenhausen 6-8, D-50667 Cologne, Germany",
            "name": "Germany",
            "lat": 51.1657,
            "lng": 10.4515,
            "src": "ai",
            "model": "Aliyun:qwen3-coder-plus-2025-07-22"
        },
        {
            "address": "Complex Sci Hub Vienna, Josefstadter Str 39, A-1080 Vienna, Austria",
            "name": "Austria",
            "lat": 47.5162,
            "lng": 11.5754,
            "src": "ai",
            "model": "Aliyun:qwen-turbo"
        },
        {
            "address": "ZBW Leibniz Informat Ctr Econ, Dusternbrooker Weg 120, D-24105 Kiel, Germany",
            "name": "Germany",
            "lat": 51.1657,
            "lng": 10.4515,
            "src": "ai",
            "model": "Aliyun:deepseek-v3.1"
        },
        {
            "address": "Heinrich Heine Univ Dusseldorf, Univ Str 1, D-40225 Dusseldorf, Germany",
            "name": "Germany",
            "lat": 51.1657,
            "lng": 10.4515,
            "src": "ai",
            "model": "Aliyun:qwen2.5-32b-instruct"
        },
        {
            "address": "German Ctr Higher Educ Res & Sci Studies, DZHW7 Schutzenstr 6a, D-10117 Berlin, Germany",
            "name": "Germany",
            "lat": 51.1657,
            "lng": 10.4515,
            "src": "ai",
            "model": "Aliyun:qwen-plus-2025-07-14"
        },
        {
            "address": "Indian Inst Technol Madras, Dept Management Studies, Chennai, India",
            "name": "India",
            "lat": 13.0526,
            "lng": 80.2425,
            "src": "ai",
            "model": "Aliyun:qwen2.5-7b-instruct-1m"
        },
        {
            "address": "Katholieke Univ Leuven, Steunpunt O&O Statistieken, Dekenstraat 2, B-3000 Louvain, Belgium",
            "name": "Belgium",
            "lat": 50.5039,
            "lng": 4.4699,
            "src": "ai",
            "model": "Aliyun:qwen3-next-80b-a3b-instruct"
        },
        {
            "address": "Hungarian Acad Sci, IRPS, Budapest, Hungary",
            "name": "Hungary",
            "lat": 47.4977,
            "lng": 19.0402,
            "src": "ai",
            "model": "Aliyun:qwen-coder-turbo-0919"
        },
        {
            "address": "SciTech Strategies Inc, Berwyn, USA",
            "name": "United States",
            "lat": 39.9525,
            "lng": -75.2042,
            "src": "ai",
            "model": "Aliyun:qwen2.5-7b-instruct"
        },
        {
            "address": "SciTech Strategies Inc, Albuquerque, USA",
            "name": "United States",
            "lat": 37.0902,
            "lng": -95.7129,
            "src": "ai",
            "model": "Aliyun:qwen-plus-2025-04-28"
        },
        {
            "address": "So Cross Univ, Lismore, NSW 2480, Australia",
            "name": "Australia",
            "lat": -25.2744,
            "lng": 133.7751,
            "src": "ai",
            "model": "Aliyun:qwen-coder-plus-1106"
        },
        {
            "address": "Chinese Acad Sci, Natl Sci Lib, Beijing 100190, China",
            "name": "China",
            "lat": 39.9042,
            "lng": 116.4074,
            "src": "ai",
            "model": "Aliyun:qwen-coder-turbo-latest"
        },
        {
            "address": "Fujian Normal Univ, Fuzhou 350007, China",
            "name": "China",
            "lat": 35.8617,
            "lng": 104.1954,
            "src": "ai",
            "model": "Aliyun:qwen-coder-plus-latest"
        },
        {
            "address": "Econ & Social Res Inst, Dublin, Ireland",
            "name": "Ireland",
            "lat": 53.1424,
            "lng": -7.6921,
            "src": "ai",
            "model": "Aliyun:qwen-plus-2025-12-01"
        },
        {
            "address": "Vrije Univ Amsterdam, Inst Environm Studies, Amsterdam, Netherlands",
            "name": "Netherlands",
            "lat": 52.3689,
            "lng": 4.9042,
            "src": "ai",
            "model": "Aliyun:qwen-coder-turbo"
        },
        {
            "address": "Carnegie Mellon Univ, Dept Engn & Publ Policy, Pittsburgh, USA",
            "name": "United States",
            "lat": 37.0902,
            "lng": -95.7129,
            "src": "ai",
            "model": "Aliyun:qwen2.5-coder-14b-instruct"
        },
        {
            "address": "Univ Las Palmas Gran Canaria, Dept Quantitat Methods Econ, Las Palmas Gran Canaria 35017, Spain",
            "name": "Spain",
            "lat": 40.4637,
            "lng": -3.7492,
            "src": "ai",
            "model": "Aliyun:qwen2.5-coder-32b-instruct"
        },
        {
            "address": "Politecn Torino, DIGEP Dept Management & Prod Syst, I-10129 Turin, Italy",
            "name": "Italy",
            "lat": 41.9029,
            "lng": 12.4964,
            "src": "ai",
            "model": "Aliyun:qwen3-coder-flash"
        },
        {
            "address": "Univ Udine, Dept Math & Comp Sci, I-33100 Udine, Italy",
            "name": "Italy",
            "lat": 41.9026,
            "lng": 12.4534,
            "src": "ai",
            "model": "Aliyun:qwen-turbo-2025-07-15"
        },
        {
            "address": "Univ Cagliari, Dept Math & Comp Sci, Via Osped 72, I-09124 Cagliari, Italy",
            "name": "Italy",
            "lat": 41.9028,
            "lng": 12.4964,
            "src": "ai",
            "model": "Aliyun:tongyi-xiaomi-analysis-flash"
        },
        {
            "address": "Copenhagen Univ Lib, Royal Lib, Fac Lib Nat & Hlth Sci, Copenhagen, Denmark",
            "name": "Denmark",
            "lat": 56.2639,
            "lng": 9.5018,
            "src": "ai",
            "model": "Aliyun:qwen3-coder-next"
        },
        {
            "address": "Univ Copenhagen, Fac Hlth & Med Sci, SUND Res & Innovat, Copenhagen, Denmark",
            "name": "Denmark",
            "lat": 56.2639,
            "lng": 12.6619,
            "src": "ai",
            "model": "Aliyun:qwen-turbo-2025-04-28"
        },
        {
            "address": "Drexel Univ, Coll Informat Sci & Technol, Philadelphia, USA",
            "name": "United States",
            "lat": 39.7392,
            "lng": -104.9903,
            "src": "ai",
            "model": "Aliyun:qwen-flash"
        },
        {
            "address": "Vistula Univ, Fac Business & Int Relat, PL-02787 Warsaw, Poland",
            "name": "Poland",
            "lat": 52.108,
            "lng": 21.2192,
            "src": "ai",
            "model": "Aliyun:qwen-turbo-2024-11-01"
        },
        {
            "address": "SGH Warsaw Sch Econ, Dept Quantitat Econ, PL-02554 Warsaw, Poland",
            "name": "Poland",
            "lat": 52.2297,
            "lng": 21.0122,
            "src": "ai",
            "model": "Aliyun:qwen3-30b-a3b-instruct-2507"
        },
        {
            "address": "Antiplagiat Co, Moscow, Russia",
            "name": "Russia",
            "lat": 61.524,
            "lng": 105.3188,
            "src": "ai",
            "model": "Aliyun:qwen-turbo-latest"
        },
        {
            "address": "Ryerson Univ, Dept Mech & Ind Engn, Toronto, ON, Canada",
            "name": "Canada",
            "lat": 56.1304,
            "lng": -106.3468,
            "src": "ai",
            "model": "Aliyun:qwen3-coder-480b-a35b-instruct"
        },
        {
            "address": "Cape Breton Univ, Shannon Sch Business, Sydney, NS, Canada",
            "name": "Canada",
            "lat": 56.1304,
            "lng": -106.3468,
            "src": "ai",
            "model": "Aliyun:tongyi-xiaomi-analysis-pro"
        },
        {
            "address": "Wuhan Univ, Res Ctr Chinese Sci Evaluat RCCSE, Wuhan 430072, China",
            "name": "China",
            "lat": 35.8617,
            "lng": 104.1954,
            "src": "ai",
            "model": "Aliyun:qwen2.5-14b-instruct"
        },
        {
            "address": "Shandong Univ Polit Sci & Law, Coll Cyber Secur, Jinan 250014, Shandong, China",
            "name": "China",
            "lat": 36.6556,
            "lng": 116.491,
            "src": "ai",
            "model": "Aliyun:codeqwen1.5-7b-chat"
        },
        {
            "address": "Univ Carlos III Madrid, Dept Econ, E-28903 Getafe, Spain",
            "name": "Spain",
            "lat": 40.4637,
            "lng": -3.7492,
            "src": "ai",
            "model": "Aliyun:qwen3-coder-plus-2025-07-22"
        },
        {
            "address": "Trakya Univ, Dept Comp Engn, Edirne, Turkey",
            "name": "Turkey",
            "lat": 39.0026,
            "lng": 34.7518,
            "src": "ai",
            "model": "Aliyun:qwen-turbo"
        },
        {
            "address": "Eskisehir Tech Univ, Dept Comp Engn, Eskisehir, Turkey",
            "name": "Turkey",
            "lat": 38.9637,
            "lng": 35.2433,
            "src": "ai",
            "model": "Aliyun:deepseek-v3.1"
        },
        {
            "address": "Dalian Univ Technol, Inst Sci Sci & S&T Management, WISE Lab, Dalian 116024, China",
            "name": "China",
            "lat": 35.8617,
            "lng": 104.1954,
            "src": "ai",
            "model": "Aliyun:qwen2.5-32b-instruct"
        },
        {
            "address": "Univ Copenhagen, Dept Informat Studies, Njalsgade 76, DK-2300 Copenhagen S, Denmark",
            "name": "Denmark",
            "lat": 55.6761,
            "lng": 12.5683,
            "src": "ai",
            "model": "Aliyun:qwen-flash"
        },
        {
            "address": "Chinese Acad Sci, Natl Sci Lib, Beijing, China",
            "name": "China",
            "lat": 39.9042,
            "lng": 116.407,
            "src": "ai",
            "model": "Aliyun:qwen2.5-7b-instruct-1m"
        },
        {
            "address": "China Univ Min & Technol Beijing, Sch Management, Beijing, China",
            "name": "China",
            "lat": 35.8617,
            "lng": 104.1954,
            "src": "ai",
            "model": "Aliyun:qwen3-next-80b-a3b-instruct"
        },
        {
            "address": "Seoul Natl Univ, Seoul, South Korea",
            "name": "South Korea",
            "lat": 37.5665,
            "lng": 126.978,
            "src": "ai",
            "model": "Aliyun:qwen-coder-turbo-0919"
        },
        {
            "address": "Nanjing Agr Univ, Sch Informat Management, Nanjing 210095, China",
            "name": "China",
            "lat": 31.834,
            "lng": 118.7561,
            "src": "ai",
            "model": "Aliyun:qwen2.5-7b-instruct"
        },
        {
            "address": "Hangzhou Dianzi Univ, Chinese Acad Sci & Educ Evaluat CASSE, Hangzhou, Zhejiang, China",
            "name": "China",
            "lat": 35.8617,
            "lng": 104.1954,
            "src": "ai",
            "model": "Aliyun:qwen-plus-2025-04-28"
        },
        {
            "address": "McGill Univ, Sch Informat Studies, Montreal, PQ, Canada",
            "name": "Canada",
            "lat": 56.1304,
            "lng": -106.3468,
            "src": "ai",
            "model": "Aliyun:qwen-coder-plus-1106"
        },
        {
            "address": "Zhongyuan Univ Technol, Sch Econ & Management, Zhengzhou 451191, China",
            "name": "China",
            "lat": 34.7667,
            "lng": 113.6667,
            "src": "ai",
            "model": "Aliyun:qwen-coder-turbo-latest"
        },
        {
            "address": "Beijing Inst Technol, Sch Global Governance, Beijing 100081, China",
            "name": "China",
            "lat": 35.8617,
            "lng": 104.1954,
            "src": "ai",
            "model": "Aliyun:qwen-coder-plus-latest"
        },
        {
            "address": "Beijing Inst Technol, Sch Management & Econ, Beijing 100081, China",
            "name": "China",
            "lat": 35.8617,
            "lng": 104.1954,
            "src": "ai",
            "model": "Aliyun:qwen-plus-2025-12-01"
        },
        {
            "address": "Beijing Inst Technol, Off 423,Main Bldg,5,South St, Beijing 100081, China",
            "name": "China",
            "lat": 39.9042,
            "lng": 116.4074,
            "src": "ai",
            "model": "Aliyun:qwen-coder-turbo"
        },
        {
            "address": "Univ Debrecen, Dept Civil Engn, 2-4 Otemeto U, H-4028 Debrecen, Hungary",
            "name": "Hungary",
            "lat": 47.1625,
            "lng": 19.5033,
            "src": "ai",
            "model": "Aliyun:qwen2.5-coder-14b-instruct"
        },
        {
            "address": "Hungarian Cent Stat Off, 5-7 Keleti Karoly U, H-1024 Budapest, Hungary",
            "name": "Hungary",
            "lat": 47.1625,
            "lng": 19.5033,
            "src": "ai",
            "model": "Aliyun:qwen2.5-coder-32b-instruct"
        },
        {
            "address": "Adm Headquarters Max Planck Soc, Div Sci & Innovat Studies, D-80539 Munich, Germany",
            "name": "Germany",
            "lat": 51.1657,
            "lng": 10.4515,
            "src": "ai",
            "model": "Aliyun:qwen3-coder-flash"
        },
        {
            "address": "Univ Sussex, Dept Econ, E Sussex BN1 9SL, UK",
            "name": "United Kingdom",
            "lat": 51.4769,
            "lng": -0.2387,
            "src": "ai",
            "model": "Aliyun:qwen-turbo-2025-07-15"
        },
        {
            "address": "Vrije Univ Amsterdam, Dept Spatial Econ, Amsterdam, Netherlands",
            "name": "Netherlands",
            "lat": 52.3618,
            "lng": 4.9018,
            "src": "ai",
            "model": "Aliyun:tongyi-xiaomi-analysis-flash"
        },
        {
            "address": "Tinbergen Inst, Amsterdam, Netherlands",
            "name": "Netherlands",
            "lat": 52.1326,
            "lng": 5.2913,
            "src": "ai",
            "model": "Aliyun:qwen3-coder-next"
        },
        {
            "address": "CESifo, Munich, Germany",
            "name": "Germany",
            "lat": 51.1657,
            "lng": 13.7455,
            "src": "ai",
            "model": "Aliyun:qwen-turbo-2025-04-28"
        },
        {
            "address": "Colorado Sch Mines, Payne Inst Publ Policy, Golden, USA",
            "name": "United States",
            "lat": 39.7392,
            "lng": -104.9903,
            "src": "ai",
            "model": "Aliyun:qwen-flash"
        },
        {
            "address": "Abu Dhabi Univ, Coll Business, Abu Dhabi, U Arab Emirates",
            "name": "United Arab Emirates",
            "lat": 24.4539,
            "lng": 54.3773,
            "src": "ai",
            "model": "Aliyun:qwen-turbo-2024-11-01"
        },
        {
            "address": "Katholieke Univ Leuven, Ctr R&D Monitoring ECOOM, Louvain, Belgium",
            "name": "Belgium",
            "lat": 50.8371,
            "lng": 4.3676,
            "src": "ai",
            "model": "Aliyun:qwen3-30b-a3b-instruct-2507"
        },
        {
            "address": "Univ Fed Minas Gerais, Dept Comp Sci, BR-31270901 Belo Horizonte, MG, Brazil",
            "name": "Brazil",
            "lat": -14.235,
            "lng": -51.9253,
            "src": "ai",
            "model": "Aliyun:qwen-turbo-latest"
        },
        {
            "address": "Virginia Tech, Dept Comp Sci, Blacksburg, USA",
            "name": "United States",
            "lat": 37.0902,
            "lng": -95.7129,
            "src": "ai",
            "model": "Aliyun:qwen3-coder-480b-a35b-instruct"
        },
        {
            "address": "Kyoto Univ, Kyoto, Japan",
            "name": "Japan",
            "lat": 36.2048,
            "lng": 138.2529,
            "src": "ai",
            "model": "Aliyun:tongyi-xiaomi-analysis-pro"
        },
        {
            "address": "RIKEN AIP, Tokyo, Japan",
            "name": "Japan",
            "lat": 35.6895,
            "lng": 139.6917,
            "src": "ai",
            "model": "Aliyun:qwen2.5-14b-instruct"
        },
        {
            "address": "Seoul Natl Univ, Technol Management Econ & Policy Program, 1 Gwanak Ro, Seoul 08826, South Korea",
            "name": "South Korea",
            "lat": 37.5665,
            "lng": 126.978,
            "src": "ai",
            "model": "Aliyun:codeqwen1.5-7b-chat"
        },
        {
            "address": "Seoul Natl Univ, Integrated Major Smart City Global Convergence, 1 Gwanak Ro, Seoul 08826, South Korea",
            "name": "South Korea",
            "lat": 36.5,
            "lng": 127.5,
            "src": "ai",
            "model": "Aliyun:qwen3-coder-plus-2025-07-22"
        },
        {
            "address": "Natl Inst Technol, Dept CSE, Durgapur 713209, India",
            "name": "India",
            "lat": 20.5937,
            "lng": 78.9375,
            "src": "ai",
            "model": "Aliyun:qwen-turbo"
        },
        {
            "address": "Dr BC Roy Engn Coll, Dept CSE IT, Durgapur 713206, India",
            "name": "India",
            "lat": 20.5937,
            "lng": 78.9629,
            "src": "ai",
            "model": "Aliyun:deepseek-v3.1"
        },
        {
            "address": "Univ Florida, Dept Sociol & Criminol & Law, Gainesville, USA",
            "name": "United States",
            "lat": 39.0,
            "lng": -96.5,
            "src": "ai",
            "model": "Aliyun:qwen2.5-32b-instruct"
        },
        {
            "address": "Univ Florida, Bur Econ & Business Res, Gainesville, USA",
            "name": "United States",
            "lat": 39.8283,
            "lng": -98.5795,
            "src": "ai",
            "model": "Aliyun:qwen-plus-2025-07-14"
        },
        {
            "address": "Bar Ilan Univ, Dept Informat Sci, IL-5290002 Ramat Gan, Israel",
            "name": "Israel",
            "lat": 32.0853,
            "lng": 34.8818,
            "src": "ai",
            "model": "Aliyun:qwen2.5-7b-instruct-1m"
        },
        {
            "address": "Rathenau Inst, NL-2593 HW The Hague, Netherlands",
            "name": "Netherlands",
            "lat": 52.1326,
            "lng": 5.2913,
            "src": "ai",
            "model": "Aliyun:qwen-turbo-2024-11-01"
        },
        {
            "address": "Vrije Univ Amsterdam, Network Inst, Amsterdam, Netherlands",
            "name": "Netherlands",
            "lat": 52.3702,
            "lng": 4.8952,
            "src": "ai",
            "model": "Aliyun:qwen-coder-turbo-0919"
        },
        {
            "address": "Vrije Univ Amsterdam, Dept Org Sci, Amsterdam, Netherlands",
            "name": "Netherlands",
            "lat": 52.1326,
            "lng": 5.2913,
            "src": "ai",
            "model": "Aliyun:qwen3-30b-a3b-instruct-2507"
        },
        {
            "address": "GRIPS Natl Grad Inst Policy Studies, Minato Ku, Tokyo 106867, Japan",
            "name": "Japan",
            "lat": 36.2048,
            "lng": 138.2529,
            "src": "ai",
            "model": "Aliyun:qwen-plus-2025-04-28"
        },
        {
            "address": "Univ Paris Est, ESIEE LATTS IFRIS, F-93160 Noisy Le Grand, France",
            "name": "France",
            "lat": 46.2276,
            "lng": 2.2137,
            "src": "ai",
            "model": "Aliyun:qwen-coder-plus-1106"
        },
        {
            "address": "Aix Marseille Univ, CNRS, LEST UMR 7317, F-13626 Aix En Provence 01, France",
            "name": "France",
            "lat": 43.2965,
            "lng": 5.3698,
            "src": "ai",
            "model": "Aliyun:qwen-coder-turbo-latest"
        },
        {
            "address": "Indiana Univ, Sch Informat & Comp, Dept Informat & Lib Sci, Bloomington, USA",
            "name": "United States",
            "lat": 37.0902,
            "lng": -95.7129,
            "src": "ai",
            "model": "Aliyun:qwen-coder-plus-latest"
        },
        {
            "address": "Univ Copenhagen, Royal Sch Lib & Informat Sci, Fac Humanities, Birketinget 6, DK-2300 Copenhagen S, Denmark",
            "name": "Denmark",
            "lat": 56.2639,
            "lng": 9.5018,
            "src": "ai",
            "model": "Aliyun:qwen-plus-2025-12-01"
        },
        {
            "address": "Polish Acad Sci, Syst Res Inst, PL-01447 Warsaw, Poland",
            "name": "Poland",
            "lat": 52.2297,
            "lng": 21.0122,
            "src": "ai",
            "model": "Aliyun:qwen-coder-turbo"
        },
        {
            "address": "Warsaw Univ Technol, Fac Math & Informat Sci, PL-00661 Warsaw, Poland",
            "name": "Poland",
            "lat": 52.22968,
            "lng": 21.01223,
            "src": "ai",
            "model": "Aliyun:qwen2.5-coder-14b-instruct"
        },