{
    "total": 2379,
    "page": 1,
    "page_size": 2379,
    "records": [
        {
            "address": "Univ Antwerp, Fac Social Sci, B-2020 Antwerp, Belgium",
            "name": "University of Antwerp",
            "lat": 51.2194,
            "lng": 4.3976,
            "src": "ai",
            "model": "Aliyun:qwen-turbo-2025-07-15"
        },
        {
            "address": "Katholieke Univ Leuven, Ctr R&D Monitoring ECOOM, B-3000 Leuven, Belgium",
            "name": "Katholieke Univ Leuven",
            "lat": 50.8466,
            "lng": 4.3511,
            "src": "ai",
            "model": "Aliyun:tongyi-xiaomi-analysis-flash"
        },
        {
            "address": "Katholieke Univ Leuven, Dept MSI, B-3000 Leuven, Belgium",
            "name": "Katholieke Universiteit Leuven",
            "lat": 50.8798,
            "lng": 4.7004,
            "src": "ai",
            "model": "Aliyun:qwen3-coder-next"
        },
        {
            "address": "Nanjing Univ, Sch Informat Management, Nanjing, China",
            "name": "Nanjing Univ",
            "lat": 31.5629,
            "lng": 120.7404,
            "src": "ai",
            "model": "Aliyun:qwen-turbo-2025-04-28"
        },
        {
            "address": "Zhejiang Univ Finance & Econ, Sch Management, Hangzhou, China",
            "name": "Zhejiang Univ Finance & Econ",
            "lat": 30.2343,
            "lng": 120.1551,
            "src": "ai",
            "model": "Aliyun:qwen-flash"
        },
        {
            "address": "Fudan Univ, Natl Expt Base Intelligent Evaluat & Governance, Shanghai, China",
            "name": "Fudan Univ",
            "lat": 31.2228,
            "lng": 121.4585,
            "src": "ai",
            "model": "Aliyun:qwen-turbo-2024-11-01"
        },
        {
            "address": "Nanjing Univ, Int Joint Informat Lab, Nanjing, China",
            "name": "Nanjing Univ",
            "lat": 32.06,
            "lng": 118.78,
            "src": "ai",
            "model": "Aliyun:qwen3-30b-a3b-instruct-2507"
        },
        {
            "address": "Renmin Univ China, Sch Informat Resource Management, Beijing 100872, China",
            "name": "Renmin Univ China",
            "lat": 39.9042,
            "lng": 116.3958,
            "src": "ai",
            "model": "Aliyun:qwen-turbo-latest"
        },
        {
            "address": "Renmin Univ China, Sch Informat, Beijing 100872, China",
            "name": "Renmin Univ China",
            "lat": 39.9042,
            "lng": 116.4074,
            "src": "ai",
            "model": "Aliyun:qwen3-coder-480b-a35b-instruct"
        },
        {
            "address": "Eindhoven Univ Technol, Sch Innovat Sci, NL-5600 MB Eindhoven, Netherlands",
            "name": "Eindhoven Univ Technol, Sch Innovat Sci",
            "lat": 51.49967,
            "lng": 5.48429,
            "src": "ai",
            "model": "Aliyun:tongyi-xiaomi-analysis-pro"
        },
        {
            "address": "Univ Utrecht, Dept Innovat Studies, NL-3508 TC Utrecht, Netherlands",
            "name": "Univ Utrecht",
            "lat": 52.09074,
            "lng": 5.12142,
            "src": "ai",
            "model": "Aliyun:qwen2.5-14b-instruct"
        },
        {
            "address": "So Cross Univ, Sch Environm Sci & Management, Lismore, NSW 2480, Australia",
            "name": "So Cross University",
            "lat": -33.901,
            "lng": 151.252,
            "src": "ai",
            "model": "Aliyun:codeqwen1.5-7b-chat"
        },
        {
            "address": "Max Planck Gesell, D-80539 Munich, Germany",
            "name": "Max Planck Gesell",
            "lat": 48.1351,
            "lng": 11.582,
            "src": "ai",
            "model": "Aliyun:qwen3-coder-plus-2025-07-22"
        },
        {
            "address": "Univ Amsterdam, Amsterdam Sch Commun Res, NL-1012 CX Amsterdam, Netherlands",
            "name": "Univ Amsterdam",
            "lat": 52.374,
            "lng": 4.889,
            "src": "ai",
            "model": "Aliyun:qwen-turbo"
        },
        {
            "address": "Univ Hasselt, B-3590 Diepenbeek, Belgium",
            "name": "Univ Hasselt",
            "lat": 50.9311,
            "lng": 5.3965,
            "src": "ai",
            "model": "Aliyun:deepseek-v3.1"
        },
        {
            "address": "Univ Antwerp, B-2610 Antwerp, Belgium",
            "name": "Univ Antwerp",
            "lat": 51.2207,
            "lng": 4.4055,
            "src": "ai",
            "model": "Aliyun:qwen2.5-32b-instruct"
        },
        {
            "address": "Univ Antwerp, B-2000 Antwerp, Belgium",
            "name": "Univ Antwerp",
            "lat": 51.2213,
            "lng": 4.4002,
            "src": "ai",
            "model": "Aliyun:qwen-plus-2025-07-14"
        },
        {
            "address": "Natl Res Council Italy, Inst Syst Anal & Comp Sci IASI CNR, Lab Studies Res & Technol Transfer, Rome, Italy",
            "name": "Natl Res Council Italy",
            "lat": 41.89027,
            "lng": 12.51694,
            "src": "ai",
            "model": "Aliyun:qwen2.5-7b-instruct-1m"
        },
        {
            "address": "Univ Roma Tor Vergata, Rome, Italy",
            "name": "Univ Roma Tor Vergata",
            "lat": 41.9177,
            "lng": 12.7081,
            "src": "ai",
            "model": "Aliyun:qwen3-next-80b-a3b-instruct"
        },
        {
            "address": "Lab Studies Res & Technol Transfer IASI CNR, Rome, Italy",
            "name": "CNR",
            "lat": 41.89193,
            "lng": 12.51133,
            "src": "ai",
            "model": "Aliyun:qwen-coder-turbo-0919"
        },
        {
            "address": "Max Planck Gesell, Sci Policy & Strategy Dept, Adm Headquarters, Hofgartenstr 8, D-80539 Munich, Germany",
            "name": "Max Planck Gesellschaft",
            "lat": 48.1363,
            "lng": 11.57313,
            "src": "ai",
            "model": "Aliyun:qwen2.5-7b-instruct"
        },
        {
            "address": "Tech Univ Dresden, CEPIE Ctr Publ & Int Econ, Munchner Pl 2-3, D-01069 Dresden, Germany",
            "name": "Tech Univ Dresden",
            "lat": 51.0509,
            "lng": 13.7336,
            "src": "ai",
            "model": "Aliyun:qwen-plus-2025-04-28"
        },
        {
            "address": "CSIC, Inst Publ Goods & Policies IPP, Consejo Super Invest Cient, C Albasanz 26-28, Madrid 28037, Spain",
            "name": "CSIC",
            "lat": 40.4168,
            "lng": -3.7038,
            "src": "ai",
            "model": "Aliyun:qwen-coder-plus-1106"
        },
        {
            "address": "Ifo Inst, Poschingerstr 5, D-81679 Munich, Germany",
            "name": "Ifo Institute",
            "lat": 48.1372,
            "lng": 11.5756,
            "src": "ai",
            "model": "Aliyun:qwen-coder-turbo-latest"
        },
        {
            "address": "Wuhan Univ, Ctr Studies Informat Resources, Wuhan 430072, China",
            "name": "Wuhan Univ",
            "lat": 30.5928,
            "lng": 114.3055,
            "src": "ai",
            "model": "Aliyun:qwen-coder-plus-latest"
        },
        {
            "address": "Huazhong Normal Univ, Sch Informat Management, Wuhan 430079, China",
            "name": "Huazhong Normal University",
            "lat": 30.5486,
            "lng": 114.3927,
            "src": "ai",
            "model": "Aliyun:qwen-plus-2025-12-01"
        },
        {
            "address": "Drexel Univ, Coll Comp & Informat, 3141 Chestnut St, Philadelphia, USA",
            "name": "Drexel University",
            "lat": 39.9522,
            "lng": -75.1639,
            "src": "ai",
            "model": "Aliyun:qwen-coder-turbo"
        },
        {
            "address": "Aarhus Univ, Danish Ctr Studies Res & Res Policy, Bartholins Alle 7, DK-8000 Aarhus C, Denmark",
            "name": "Aarhus Univ",
            "lat": 56.1625,
            "lng": 10.2036,
            "src": "ai",
            "model": "Aliyun:qwen2.5-coder-14b-instruct"
        },
        {
            "address": "Guangzhou Univ, Sun Yat Sen Univ, Huandong Rd,132 Waihuan East Rd, Guangzhou 510006, China",
            "name": "Guangzhou Univ",
            "lat": 23.12911,
            "lng": 113.26438,
            "src": "ai",
            "model": "Aliyun:qwen2.5-coder-32b-instruct"
        },
        {
            "address": "Dalian Univ, Sch Econ & Management, Dalian 116622, China",
            "name": "Dalian Univ",
            "lat": 38.9145,
            "lng": 121.6147,
            "src": "ai",
            "model": "Aliyun:qwen3-coder-flash"
        },
        {
            "address": "Zhejiang Univ, Dept Informat Resource Management, Hangzhou 310058, Zhejiang, China",
            "name": "Zhejiang Univ",
            "lat": 30.2741,
            "lng": 120.1934,
            "src": "ai",
            "model": "Aliyun:qwen-turbo-2025-07-15"
        },
        {
            "address": "SUN Yat Sen Univ, Sch Informat Management, Guangzhou, Guangdong, China",
            "name": "SUN Yat Sen Univ",
            "lat": 23.1291,
            "lng": 113.2636,
            "src": "ai",
            "model": "Aliyun:tongyi-xiaomi-analysis-flash"
        },
        {
            "address": "Univ Extremadura, Dept Informat & Commun, Scimago Grp, E-06071 Badajoz, Spain",
            "name": "Univ Extremadura",
            "lat": 38.8795,
            "lng": -6.2109,
            "src": "ai",
            "model": "Aliyun:qwen3-coder-next"
        },
        {
            "address": "CSIC, CCHS, IPP, Scimago Grp, Madrid, Spain",
            "name": "CSIC",
            "lat": 40.4168,
            "lng": -3.7038,
            "src": "ai",
            "model": "Aliyun:qwen-turbo-2025-04-28"
        },
        {
            "address": "Fudan Univ, Inst Global Publ Policy, Shanghai, China",
            "name": "Fudan Univ",
            "lat": 31.2304,
            "lng": 121.4737,
            "src": "ai",
            "model": "Aliyun:qwen-flash"
        },
        {
            "address": "Fudan Univ, LSE Fudan Res Ctr Global Publ Policy, Shanghai, China",
            "name": "Fudan Univ",
            "lat": 31.3157,
            "lng": 121.4785,
            "src": "ai",
            "model": "Aliyun:qwen-turbo-2024-11-01"
        },
        {
            "address": "Fudan Univ, Shanghai Ctr Innovat & Governance, Shanghai, China",
            "name": "Fudan Univ",
            "lat": 31.2304,
            "lng": 121.4737,
            "src": "ai",
            "model": "Aliyun:qwen3-30b-a3b-instruct-2507"
        },
        {
            "address": "Nanjing Univ, Sch Informat Management, Nanjing, Jiangsu, China",
            "name": "Nanjing Univ",
            "lat": 32.0603,
            "lng": 118.7969,
            "src": "ai",
            "model": "Aliyun:qwen-turbo-latest"
        },
        {
            "address": "Univ Hong Kong, Fac Educ, Hong Kong, China",
            "name": "Univ Hong Kong",
            "lat": 22.3964,
            "lng": 114.1095,
            "src": "ai",
            "model": "Aliyun:qwen3-coder-480b-a35b-instruct"
        },
        {
            "address": "Univ Texas Austin, Sch Informat, Austin, USA",
            "name": "Univ Texas Austin, Sch Informat",
            "lat": 30.287,
            "lng": -97.73989,
            "src": "ai",
            "model": "Aliyun:tongyi-xiaomi-analysis-pro"
        },
        {
            "address": "Sun Yat sen Univ, Sch Informat Management, Guangzhou, Guangdong, China",
            "name": "Sun Yat sen Univ",
            "lat": 23.1291,
            "lng": 113.2645,
            "src": "ai",
            "model": "Aliyun:qwen2.5-14b-instruct"
        },
        {
            "address": "Peking Univ, Dept Informat Management, Beijing, China",
            "name": "Peking University",
            "lat": 39.9042,
            "lng": 116.4074,
            "src": "ai",
            "model": "Aliyun:codeqwen1.5-7b-chat"
        },
        {
            "address": "Univ Michigan, Sch Informat, Ann Arbor, USA",
            "name": "Univ Michigan",
            "lat": 42.2808,
            "lng": -83.743,
            "src": "ai",
            "model": "Aliyun:qwen3-coder-plus-2025-07-22"
        },
        {
            "address": "Univ Texas Austin, Dell Med Sch, Austin, USA",
            "name": "Univ Texas Austin",
            "lat": 30.2672,
            "lng": -97.7431,
            "src": "ai",
            "model": "Aliyun:qwen-turbo"
        },
        {
            "address": "Univ Hong Kong, Musketeers Fdn Inst Data Sci, Hong Kong, China",
            "name": "Univ Hong Kong",
            "lat": 22.283,
            "lng": 114.137,
            "src": "ai",
            "model": "Aliyun:deepseek-v3.1"
        },
        {
            "address": "Politecn Torino, DISPEA Dept Prod Syst & Business Econ, I-10129 Turin, Italy",
            "name": "Politecn Torino",
            "lat": 45.0703,
            "lng": 7.6869,
            "src": "ai",
            "model": "Aliyun:qwen2.5-32b-instruct"
        },
        {
            "address": "Politecn Torino, DISPEA, I-10129 Turin, Italy",
            "name": "Politecn Torino",
            "lat": 45.0703,
            "lng": 7.6869,
            "src": "ai",
            "model": "Aliyun:qwen-plus-2025-07-14"
        },
        {
            "address": "Stanford Univ, Hist Sci, Stanford, USA",
            "name": "Stanford Univ",
            "lat": 37.1392,
            "lng": -122.1893,
            "src": "ai",
            "model": "Aliyun:qwen2.5-7b-instruct-1m"
        },
        {
            "address": "Univ Wolverhampton, Sch Math & Comp Sci, Stat Cybermetr Res Grp, Wulfruna St, Wolverhampton WV1 1LY, W Midlands, UK",
            "name": "University of Wolverhampton",
            "lat": 52.5869,
            "lng": -2.1287,
            "src": "ai",
            "model": "Aliyun:qwen3-next-80b-a3b-instruct"
        },
        {
            "address": "Forschungszentrum Julich, Cent Lib, D-52425 Julich, Germany",
            "name": "Forschungszentrum Julich",
            "lat": 51.9617,
            "lng": 7.8333,
            "src": "ai",
            "model": "Aliyun:qwen-coder-turbo-0919"
        },
        {
            "address": "Univ Dusseldorf, Dept Informat Sci, D-40225 Dusseldorf, Germany",
            "name": "Univ Dusseldorf",
            "lat": 51.39848,
            "lng": 6.76975,
            "src": "ai",
            "model": "Aliyun:qwen2.5-7b-instruct"
        },
        {
            "address": "Nanjing Univ Informat Sci & Technol, Sch Management Sci & Engn, Nanjing 210044, China",
            "name": "Nanjing Univ Informat Sci & Technol",
            "lat": 32.06,
            "lng": 118.76,
            "src": "ai",
            "model": "Aliyun:qwen-plus-2025-04-28"
        },
        {
            "address": "Univ Sheffield, Informat Sch, Sheffield S10 2TN, UK",
            "name": "Univ Sheffield",
            "lat": 53.3806,
            "lng": -1.471,
            "src": "ai",
            "model": "Aliyun:qwen-coder-plus-1106"
        },
        {
            "address": "Hasselt Univ, Hasselt, Belgium",
            "name": "Hasselt University",
            "lat": 50.9611,
            "lng": 4.3872,
            "src": "ai",
            "model": "Aliyun:qwen-coder-turbo-latest"
        },
        {
            "address": "Nanjing Univ, Res Inst Data Management & Innovat, Suzhou 215163, China",
            "name": "Nanjing Univ",
            "lat": 31.8957,
            "lng": 118.7884,
            "src": "ai",
            "model": "Aliyun:qwen-coder-plus-latest"
        },
        {
            "address": "Nanjing Univ, Lab Data Intelligence & Interdisciplinary Innovat, Nanjing 210023, China",
            "name": "Nanjing University",
            "lat": 32.1167,
            "lng": 118.9167,
            "src": "ai",
            "model": "Aliyun:qwen-plus-2025-12-01"
        },
        {
            "address": "Wroclaw Univ Sci & Technol, Dept Artificial Intelligence, PL-50370 Wroclaw, Poland",
            "name": "Wroclaw University of Science and Technology",
            "lat": 51.1088,
            "lng": 17.0241,
            "src": "ai",
            "model": "Aliyun:qwen-coder-turbo"
        },
        {
            "address": "Isle Man Int Business Sch, Douglas IM2 1QB, Man, UK",
            "name": "Isle Man Int Business Sch",
            "lat": 54.2361,
            "lng": -4.5481,
            "src": "ai",
            "model": "Aliyun:qwen2.5-coder-14b-instruct"
        },
        {
            "address": "CCHS CSIC, Cybermetr Lab, Madrid 28037, Spain",
            "name": "CCHS CSIC",
            "lat": 40.4168,
            "lng": -3.7038,
            "src": "ai",
            "model": "Aliyun:qwen2.5-coder-32b-instruct"
        },
        {
            "address": "Dalian Univ Technol, WISE Lab, Dalian 116024, Liaoning, China",
            "name": "Dalian Univ Technol",
            "lat": 38.9145,
            "lng": 121.6147,
            "src": "ai",
            "model": "Aliyun:qwen3-coder-flash"
        },
        {
            "address": "Indiana Univ, Sch Informat Comp & Engn, Bloomington, USA",
            "name": "Indiana Univ",
            "lat": 39.162,
            "lng": -86.527,
            "src": "ai",
            "model": "Aliyun:qwen-turbo-2025-07-15"
        },
        {
            "address": "Univ Texas Austin, Dept Populat Hlth, Sch Informat, Austin, USA",
            "name": "Univ Texas Austin",
            "lat": 31.9686,
            "lng": -97.8312,
            "src": "ai",
            "model": "Aliyun:tongyi-xiaomi-analysis-flash"
        },
        {
            "address": "Wuhan Univ, Sch Informat Management, Wuhan 430072, Hubei, China",
            "name": "Wuhan University",
            "lat": 30.5218,
            "lng": 114.3669,
            "src": "ai",
            "model": "Aliyun:qwen3-coder-next"
        },
        {
            "address": "Zhejiang Univ, Sch Med, Med Informat Ctr, Hangzhou 310058, Zhejiang, China",
            "name": "Zhejiang Univ",
            "lat": 30.2349,
            "lng": 120.1464,
            "src": "ai",
            "model": "Aliyun:qwen-turbo-2025-04-28"
        },
        {
            "address": "Univ Amsterdam, Amsterdam Sch Commun Res ASCoR, POB 15793, NL-1001 NG Amsterdam, Netherlands",
            "name": "University of Amsterdam",
            "lat": 52.3676,
            "lng": 4.8971,
            "src": "ai",
            "model": "Aliyun:qwen-flash"
        },
        {
            "address": "Katholieke Univ Leuven, Dept Math, Celestijnenlaan 200B, B-3001 Leuven, Belgium",
            "name": "Katholieke Univ Leuven",
            "lat": 50.8754,
            "lng": 4.6971,
            "src": "ai",
            "model": "Aliyun:qwen-turbo-2024-11-01"
        },
        {
            "address": "Univ Antwerp, Fac Social Sci, B-2000 Antwerp, Belgium",
            "name": "University of Antwerp",
            "lat": 51.2221,
            "lng": 4.3997,
            "src": "ai",
            "model": "Aliyun:qwen3-30b-a3b-instruct-2507"
        },
        {
            "address": "CNR, Lab Studies Res & Technol Transfer, Inst Syst Anal & Comp Sci IASI CNR, Rome, Italy",
            "name": "CNR",
            "lat": 41.9026,
            "lng": 12.4583,
            "src": "ai",
            "model": "Aliyun:qwen-turbo-latest"
        },
        {
            "address": "Univ Roma Tor Vergata, Sch Engn, Dept Management, Rome, Italy",
            "name": "Univ Roma Tor Vergata",
            "lat": 41.8539,
            "lng": 12.6043,
            "src": "ai",
            "model": "Aliyun:qwen3-coder-480b-a35b-instruct"
        },
        {
            "address": "Univ Siena, I-53100 Siena, Italy",
            "name": "Univ Siena",
            "lat": 43.31636,
            "lng": 11.33284,
            "src": "ai",
            "model": "Aliyun:tongyi-xiaomi-analysis-pro"
        },
        {
            "address": "Univ Malaga, ETS Ingn Informat, Dept Tecnol Elect, Bulevar Louis Pasteur,35 Campus Teatinos, Malaga 29071, Spain",
            "name": "Univ Malaga",
            "lat": 36.72149,
            "lng": -4.42217,
            "src": "ai",
            "model": "Aliyun:qwen2.5-14b-instruct"
        },
        {
            "address": "Univ Malaga, ETS Ingn Informat, Dept Lenguajes & Ciencias Comp, Bulevar Louis Pasteur,35 Campus Teatinos, Malaga 29071, Spain",
            "name": "Univ Malaga, ETS Ingn Informat, Dept Lenguajes & Ciencias Comp",
            "lat": 36.72575,
            "lng": -4.42003,
            "src": "ai",
            "model": "Aliyun:codeqwen1.5-7b-chat"
        },
        {
            "address": "Georgia Inst Technol, Sch Publ Policy, Atlanta, USA",
            "name": "Georgia Inst Technol",
            "lat": 33.7756,
            "lng": -84.3963,
            "src": "ai",
            "model": "Aliyun:qwen3-coder-plus-2025-07-22"
        },
        {
            "address": "Natl Cent Univ, Dept Informat Management, Jhongli 32001, Taoyuan, Taiwan, Province of China",
            "name": "Natl Cent Univ",
            "lat": 24.9866,
            "lng": 120.9695,
            "src": "ai",
            "model": "Aliyun:qwen-turbo"
        },
        {
            "address": "Natl Tsing Hua Univ, Inst Serv Sci, Hsinchu 30013, Taiwan, Province of China",
            "name": "Natl Tsing Hua Univ",
            "lat": 24.7956,
            "lng": 120.9965,
            "src": "ai",
            "model": "Aliyun:deepseek-v3.1"
        },
        {
            "address": "Carlos III Univ Madrid, Dept Lib & Informat Sci, Calle Madrid 126, Getafe 28903, Spain",
            "name": "Carlos III Univ Madrid",
            "lat": 40.37,
            "lng": -3.71,
            "src": "ai",
            "model": "Aliyun:qwen2.5-32b-instruct"
        },
        {
            "address": "Res Inst Higher Educ & Sci INAECU UAC3m UAM, Madrid, Spain",
            "name": "Res Inst Higher Educ & Sci INAECU UAC3m UAM",
            "lat": 40.4168,
            "lng": -3.7038,
            "src": "ai",
            "model": "Aliyun:qwen-plus-2025-07-14"
        },
        {
            "address": "Univ Vienna, Lib & Arch Serv, Bibliometr & Publicat Strategies, Boltzmanngasse 5, A-1090 Vienna, Austria",
            "name": "Univ Vienna",
            "lat": 48.2082,
            "lng": 16.3738,
            "src": "ai",
            "model": "Aliyun:qwen2.5-7b-instruct-1m"
        },
        {
            "address": "Northeastern Univ, Ctr Complex Network Res, Boston, USA",
            "name": "Northeastern Univ",
            "lat": 42.3398,
            "lng": -71.089,
            "src": "ai",
            "model": "Aliyun:qwen3-next-80b-a3b-instruct"
        },
        {
            "address": "Australian Natl Univ, Sch Polit & Int Relat, Canberra, ACT 0200, Australia",
            "name": "Australian National University",
            "lat": -35.1895,
            "lng": 149.1377,
            "src": "ai",
            "model": "Aliyun:qwen-coder-turbo-0919"
        },
        {
            "address": "Max Planck Soc Munich MPG, Munich, Germany",
            "name": "Max Planck Soc Munich MPG",
            "lat": 48.1377,
            "lng": 11.56217,
            "src": "ai",
            "model": "Aliyun:qwen2.5-7b-instruct"
        },
        {
            "address": "Univ Rovira & Virgili, Dept Econ, Tarragona, Spain",
            "name": "Univ Rovira & Virgili",
            "lat": 41.1189,
            "lng": 1.2445,
            "src": "ai",
            "model": "Aliyun:qwen-plus-2025-04-28"
        },
        {
            "address": "CREIP, Reus, Spain",
            "name": "CREIP",
            "lat": 41.13589,
            "lng": 1.12564,
            "src": "ai",
            "model": "Aliyun:qwen-coder-plus-1106"
        },
        {
            "address": "Sun Yat Sen Univ, Sch Informat Management, Guangzhou Higher Educ Mega Ctr, 132 Waihuan East Rd, Guangzhou 510006, China",
            "name": "Sun Yat Sen Univ",
            "lat": 23.1316,
            "lng": 113.2678,
            "src": "ai",
            "model": "Aliyun:tongyi-xiaomi-analysis-flash"
        },
        {
            "address": "Leiden Univ, Ctr Sci & Technol Studies, NL-2300 RA Leiden, Netherlands",
            "name": "Leiden Univ",
            "lat": 52.1552,
            "lng": 4.4822,
            "src": "ai",
            "model": "Aliyun:qwen-coder-plus-latest"
        },
        {
            "address": "Dalian Univ Technol, Sch Software, Dalian 116024, China",
            "name": "Dalian University of Technology",
            "lat": 38.9272,
            "lng": 121.617,
            "src": "ai",
            "model": "Aliyun:qwen-plus-2025-12-01"
        },
        {
            "address": "Dalian Univ Technol, Sch Life Sci & Biotechnol, Ctr Mol Med, Dalian 116024, China",
            "name": "Dalian University of Technology",
            "lat": 38.914,
            "lng": 121.544,
            "src": "ai",
            "model": "Aliyun:qwen3-coder-next"
        },
        {
            "address": "Nanjing Univ, Int Joint Informat Lab, Nanjing 210023, China",
            "name": "Nanjing Univ",
            "lat": 32.06035,
            "lng": 118.77418,
            "src": "ai",
            "model": "Aliyun:qwen2.5-coder-14b-instruct"
        },
        {
            "address": "Nanjing Univ, Jiangsu Key Lab Data Engn & Knowledge Serv, Nanjing 210023, China",
            "name": "Nanjing Univ",
            "lat": 31.8257,
            "lng": 118.7864,
            "src": "ai",
            "model": "Aliyun:qwen2.5-coder-32b-instruct"
        },
        {
            "address": "Nanjing Univ, Sch Informat Management, Nanjing 210023, China",
            "name": "Nanjing Univ",
            "lat": 32.0617,
            "lng": 118.7969,
            "src": "ai",
            "model": "Aliyun:qwen3-coder-flash"
        },
        {
            "address": "Univ Cantabria, Dept Econ, E-39005 Santander, Spain",
            "name": "Univ Cantabria",
            "lat": 43.4646,
            "lng": -3.8027,
            "src": "ai",
            "model": "Aliyun:qwen-turbo-2025-07-15"
        },
        {
            "address": "Zhejiang Dev & Planning Inst, Hangzhou, China",
            "name": "Zhejiang Dev & Planning Inst",
            "lat": 30.1696,
            "lng": 120.1564,
            "src": "ai",
            "model": "Aliyun:tongyi-xiaomi-analysis-flash"
        },
        {
            "address": "Univ Sci & Technol China, Sch Management, Hefei, China",
            "name": "Univ Sci & Technol China",
            "lat": 31.8206,
            "lng": 117.2236,
            "src": "ai",
            "model": "Aliyun:qwen3-coder-next"
        },
        {
            "address": "McGill Univ, Sch Informat Studies, 3661 Peel, Montreal, PQ H3A 1X1, Canada",
            "name": "McGill Univ",
            "lat": 45.4973,
            "lng": -73.5782,
            "src": "ai",
            "model": "Aliyun:qwen-turbo-2025-04-28"
        },
        {
            "address": "Victoria Univ Wellington, Sch Informat Management, Wellington, New Zealand",
            "name": "Victoria University of Wellington",
            "lat": -41.3068,
            "lng": 174.7792,
            "src": "ai",
            "model": "Aliyun:qwen-flash"
        },
        {
            "address": "Nord Inst Studies Innovat Res & Educ, Oslo, Norway",
            "name": "Nord Inst Studies Innovat Res & Educ",
            "lat": 59.91387,
            "lng": 10.75225,
            "src": "ai",
            "model": "Aliyun:qwen-turbo-2024-11-01"
        },
        {
            "address": "Katholieke Univ Leuven, Ctr R&D Monitoring ECOOM, Leuven, Belgium",
            "name": "Katholieke Univ Leuven",
            "lat": 50.8798,
            "lng": 4.7013,
            "src": "ai",
            "model": "Aliyun:qwen3-30b-a3b-instruct-2507"
        },
        {
            "address": "Katholieke Univ Leuven, Dept MSI, Leuven, Belgium",
            "name": "Katholieke Univ Leuven",
            "lat": 50.879,
            "lng": 4.701,
            "src": "ai",
            "model": "Aliyun:qwen-turbo-latest"
        },
        {
            "address": "Wuhan Univ, Sch Informat Management, Wuhan, Hubei, China",
            "name": "Wuhan Univ",
            "lat": 30.5928,
            "lng": 114.3055,
            "src": "ai",
            "model": "Aliyun:qwen3-coder-480b-a35b-instruct"
        },
        {
            "address": "Shenzhen Polytech, Sch Management, Shenzhen 518055, Guangdong, China",
            "name": "Shenzhen Polytech",
            "lat": 22.56616,
            "lng": 113.91491,
            "src": "ai",
            "model": "Aliyun:tongyi-xiaomi-analysis-pro"
        },
        {
            "address": "Zhengzhou Univ, Henan Acad Big Data, Zhengzhou Key Lab Big Data Anal & Applicat, 75 Daxuebei Ro, Zhengzhou 450000, Henan, China",
            "name": "Zhengzhou Univ",
            "lat": 34.76325,
            "lng": 113.6849,
            "src": "ai",
            "model": "Aliyun:qwen2.5-14b-instruct"
        },
        {
            "address": "Yonsei Univ, Dept Lib & Informat Sci, 50 Yonsei Ro, Seoul 03722, South Korea",
            "name": "Yonsei Univ, Dept Lib & Informat Sci",
            "lat": 35.2107,
            "lng": 126.8304,
            "src": "ai",
            "model": "Aliyun:codeqwen1.5-7b-chat"
        },
        {
            "address": "Adam Mickiewicz Univ, Ctr Publ Policy Studies, Poznan, Poland",
            "name": "Adam Mickiewicz Univ",
            "lat": 52.4064,
            "lng": 16.9252,
            "src": "ai",
            "model": "Aliyun:qwen3-coder-plus-2025-07-22"
        },
        {
            "address": "German Ctr Higher Educ Res & Sci Studies DZHW, Berlin, Germany",
            "name": "German Ctr Higher Educ Res & Sci Studies DZHW",
            "lat": 52.52,
            "lng": 13.405,
            "src": "ai",
            "model": "Aliyun:qwen-turbo"
        },
        {
            "address": "Poznan Univ Econ & Business, Poznan, Poland",
            "name": "Poznan Univ Econ & Business",
            "lat": 52.4064,
            "lng": 16.9252,
            "src": "ai",
            "model": "Aliyun:deepseek-v3.1"
        },
        {
            "address": "Univ Sao Paulo, Inst Phys Sao Carlos, POB 369, BR-13560970 Sao Carlos, SP, Brazil",
            "name": "Univ Sao Paulo",
            "lat": -22.1854,
            "lng": -47.8791,
            "src": "ai",
            "model": "Aliyun:qwen2.5-32b-instruct"
        },
        {
            "address": "Wolverhampton Univ, Stat Cybermetr Res Grp, Sch Math & Comp Sci, Wulfruna St, Wolverhampton WV1 1LY, W Midlands, UK",
            "name": "Wolverhampton Univ",
            "lat": 52.5913,
            "lng": -2.1304,
            "src": "ai",
            "model": "Aliyun:qwen-plus-2025-07-14"
        },
        {
            "address": "Wuhan Univ, Sch Informat Management, Wuhan 430072, China",
            "name": "Wuhan Univ",
            "lat": 30.5958,
            "lng": 114.3422,
            "src": "ai",
            "model": "Aliyun:qwen2.5-7b-instruct-1m"
        },
        {
            "address": "Natl Univ Singapore, Ctr Quantitat Finance, Dept Math, Singapore 119076, Singapore",
            "name": "Natl Univ Singapore",
            "lat": 1.29027,
            "lng": 103.77984,
            "src": "ai",
            "model": "Aliyun:qwen3-next-80b-a3b-instruct"
        },
        {
            "address": "Natl Univ Singapore, Risk Management Inst, Singapore 119076, Singapore",
            "name": "National University of Singapore",
            "lat": 1.3521,
            "lng": 103.8198,
            "src": "ai",
            "model": "Aliyun:qwen-coder-turbo-0919"
        },
        {
            "address": "Tech Univ Berlin, Inst Math, D-10623 Berlin, Germany",
            "name": "Tech Univ Berlin",
            "lat": 52.52,
            "lng": 13.40502,
            "src": "ai",
            "model": "Aliyun:qwen2.5-7b-instruct"
        },
        {
            "address": "Zuse Inst Berlin, Appl Algorithm Intelligence Methods, D-14195 Berlin, Germany",
            "name": "Zuse Inst Berlin",
            "lat": 52.4657,
            "lng": 13.3074,
            "src": "ai",
            "model": "Aliyun:qwen-plus-2025-04-28"
        },
        {
            "address": "Univ Granada, Software Engn Dept, E-18071 Granada, Spain",
            "name": "Univ Granada",
            "lat": 37.17514,
            "lng": -3.59996,
            "src": "ai",
            "model": "Aliyun:qwen-coder-plus-1106"
        },
        {
            "address": "Univ Granada, Dept Comp Sci & Artificial Intelligence, E-18071 Granada, Spain",
            "name": "University of Granada",
            "lat": 37.1496,
            "lng": -3.5886,
            "src": "ai",
            "model": "Aliyun:qwen-coder-turbo-latest"
        },
        {
            "address": "Nanjing Univ Aeronaut & Astronaut, Coll Econ & Management, Nanjing 211106, China",
            "name": "Nanjing Univ Aeronaut & Astronaut",
            "lat": 31.972,
            "lng": 118.788,
            "src": "ai",
            "model": "Aliyun:qwen-coder-plus-latest"
        },
        {
            "address": "Chinese Acad Sci, Inst Sci & Dev, Beijing 100190, China",
            "name": "Chinese Academy of Sciences",
            "lat": 39.9147,
            "lng": 116.3922,
            "src": "ai",
            "model": "Aliyun:qwen-plus-2025-12-01"
        },
        {
            "address": "Univ Chinese Acad Sci, Beijing 100049, China",
            "name": "University of Chinese Academy of Sciences",
            "lat": 39.9042,
            "lng": 116.4074,
            "src": "ai",
            "model": "Aliyun:qwen-coder-turbo"
        },
        {
            "address": "Nanjing Univ, Sch Social & Behav Sci, Nanjing 210023, China",
            "name": "Nanjing Univ",
            "lat": 32.0604,
            "lng": 118.7775,
            "src": "ai",
            "model": "Aliyun:qwen2.5-coder-14b-instruct"
        },
        {
            "address": "Shanghai Jiao Tong Univ, Sch Int & Publ Affairs, Shanghai 200030, China",
            "name": "Shanghai Jiao Tong Univ",
            "lat": 31.2304,
            "lng": 121.4737,
            "src": "ai",
            "model": "Aliyun:qwen2.5-coder-32b-instruct"
        },
        {
            "address": "Inst Sci & Tech Informat China, Beijing 100038, China",
            "name": "Inst Sci & Tech Informat China",
            "lat": 39.9042,
            "lng": 116.4074,
            "src": "ai",
            "model": "Aliyun:qwen3-coder-flash"
        },
        {
            "address": "Beijing Univ Technol, Coll Econ & Management, Beijing 100124, China",
            "name": "Beijing Univ Technol",
            "lat": 39.9833,
            "lng": 116.4,
            "src": "ai",
            "model": "Aliyun:qwen-turbo-2025-07-15"
        },
        {
            "address": "Shandong Univ Technol, Business Sch, Zibo 255000, China",
            "name": "Shandong Univ Technol",
            "lat": 35.3667,
            "lng": 117.3333,
            "src": "ai",
            "model": "Aliyun:tongyi-xiaomi-analysis-flash"
        },
        {
            "address": "Indiana Univ, Sch Lib & Informat Sci, Bloomington, USA",
            "name": "Indiana University",
            "lat": 39.16533,
            "lng": -86.52639,
            "src": "ai",
            "model": "Aliyun:qwen3-coder-next"
        },
        {
            "address": "Indiana Univ, Sch Informat & Comp, Bloomington, USA",
            "name": "Indiana Univ",
            "lat": 39.1624,
            "lng": -86.5237,
            "src": "ai",
            "model": "Aliyun:qwen-turbo-2025-04-28"
        },
        {
            "address": "Tsinghua Univ, Dept Comp Sci & Technol, Beijing 100084, China",
            "name": "Tsinghua Univ",
            "lat": 39.9971,
            "lng": 116.3848,
            "src": "ai",
            "model": "Aliyun:qwen-flash"
        },
        {
            "address": "Univ Zaragoza, Inst Biocomp & Fis Sistemas Complejos, Edificio I D Campus Rio Ebro, Zaragoza 50018, Spain",
            "name": "Univ Zaragoza",
            "lat": 41.6569,
            "lng": -0.8737,
            "src": "ai",
            "model": "Aliyun:qwen-turbo-2024-11-01"
        },
        {
            "address": "Univ Zaragoza, Dept Fis Teor, Campus San Francisco, E-50009 Zaragoza, Spain",
            "name": "Univ Zaragoza",
            "lat": 41.6508,
            "lng": -0.8877,
            "src": "ai",
            "model": "Aliyun:qwen3-30b-a3b-instruct-2507"
        },
        {
            "address": "Fdn ARAID, Diputac Gen Aragon, Zaragoza 50004, Spain",
            "name": "Fdn ARAID",
            "lat": 41.6532,
            "lng": -0.8934,
            "src": "ai",
            "model": "Aliyun:qwen-turbo-latest"
        },
        {
            "address": "Univ Sao Paulo, Inst Phys Sao Carlos, BR-05508 Sao Paulo, Brazil",
            "name": "Univ Sao Paulo",
            "lat": -23.5505,
            "lng": -46.6333,
            "src": "ai",
            "model": "Aliyun:qwen3-coder-480b-a35b-instruct"
        },
        {
            "address": "Univ Sao Paulo, Inst Math & Comp Sci, Natl Inst Sci & Technol Complex Syst, Rio De Janeiro, Brazil",
            "name": "Univ Sao Paulo, Inst Math & Comp Sci, Natl Inst Sci & Technol Complex Syst",
            "lat": -22.90287,
            "lng": -43.20754,
            "src": "ai",
            "model": "Aliyun:tongyi-xiaomi-analysis-pro"
        },
        {
            "address": "Natl Res Univ Higher Sch Econ, Ctr Inst Studies, Pokrovsky Blvd 11, Moscow 101000, Russia",
            "name": "Natl Res Univ Higher Sch Econ",
            "lat": 55.7326,
            "lng": 37.6194,
            "src": "ai",
            "model": "Aliyun:qwen2.5-14b-instruct"
        },
        {
            "address": "Natl Res Univ Higher Sch Econ, Scientometr Ctr, Pokrovsky Blvd 11, Moscow 101000, Russia",
            "name": "Natl Res Univ Higher Sch Econ, Scientometr Ctr",
            "lat": 55.75583,
            "lng": 37.6173,
            "src": "ai",
            "model": "Aliyun:codeqwen1.5-7b-chat"
        },
        {
            "address": "Natl Res Univ Higher Sch Econ, Ctr Inst Studies, Pokrovsky Blvd 11, Moscow 109028, Russia",
            "name": "Natl Res Univ Higher Sch Econ",
            "lat": 55.7612,
            "lng": 37.6645,
            "src": "ai",
            "model": "Aliyun:qwen3-coder-plus-2025-07-22"
        },
        {
            "address": "CNR, IASI, Inst Syst Anal & Comp Sci IASI, Lab Studies Res Evaluat,Natl Res Council Italy, Via Taurini 19, I-00185 Rome, Italy",
            "name": "CNR",
            "lat": 41.9028,
            "lng": 12.4964,
            "src": "ai",
            "model": "Aliyun:qwen-turbo"
        },
        {
            "address": "Univ Thessaloniki, Dept Phys, Thessaloniki 54124, Greece",
            "name": "Univ Thessaloniki",
            "lat": 40.6401,
            "lng": 22.9444,
            "src": "ai",
            "model": "Aliyun:deepseek-v3.1"
        },
        {
            "address": "Ctr Complex Syst, Thessaloniki 54124, Greece",
            "name": "Ctr Complex Syst",
            "lat": 40.6389,
            "lng": 22.9457,
            "src": "ai",
            "model": "Aliyun:qwen2.5-32b-instruct"
        },
        {
            "address": "Bar Ilan Univ, Dept Phys, IL-52900 Ramat Gan, Israel",
            "name": "Bar Ilan Univ",
            "lat": 32.0848,
            "lng": 34.8056,
            "src": "ai",
            "model": "Aliyun:qwen-plus-2025-07-14"
        },
        {
            "address": "Univ Pittsburgh, Sch Comp & Informat, 135 N Bellefield Ave, Pittsburgh, USA",
            "name": "Univ Pittsburgh",
            "lat": 40.4406,
            "lng": -79.9972,
            "src": "ai",
            "model": "Aliyun:qwen2.5-7b-instruct-1m"
        },
        {
            "address": "Zhejiang Univ, Dept Sociol, 866 Yuhangtang Rd, Hangzhou 310058, Zhejiang, China",
            "name": "Zhejiang Univ",
            "lat": 30.2741,
            "lng": 120.1551,
            "src": "ai",
            "model": "Aliyun:qwen3-next-80b-a3b-instruct"
        },
        {
            "address": "Wolverhampton Univ, Sch Technol, Stat Cybermetr Res Grp, Wolverhampton WV1 1SB, UK",
            "name": "University of Wolverhampton",
            "lat": 52.6477,
            "lng": -2.1815,
            "src": "ai",
            "model": "Aliyun:qwen-coder-turbo-0919"
        },
        {
            "address": "Natl Res Univ, Inst Stat Studies & Econ Knowledge, Higher Sch Econ, 20 Myasnitskaya Ulitsa, Moscow 101000, Russia",
            "name": "Natl Res Univ",
            "lat": 55.7617,
            "lng": 37.6213,
            "src": "ai",
            "model": "Aliyun:qwen2.5-7b-instruct"
        },
        {
            "address": "Amer Assoc Advancement Sci, 1200 New York Ave NW, Washington, USA",
            "name": "Amer Assoc Advancement Sci",
            "lat": 38.9122,
            "lng": -77.0177,
            "src": "ai",
            "model": "Aliyun:qwen-plus-2025-04-28"
        },
        {
            "address": "COLLNET Ctr, D-16540 Hohen Neuendorf, Germany",
            "name": "COLLNET Ctr",
            "lat": 52.3705,
            "lng": 13.1959,
            "src": "ai",
            "model": "Aliyun:qwen-coder-plus-1106"
        },
        {
            "address": "Williams Coll, Williamstown, USA",
            "name": "Williams College",
            "lat": 42.3671,
            "lng": -72.5814,
            "src": "ai",
            "model": "Aliyun:qwen-coder-turbo-latest"
        },
        {
            "address": "Univ Jaume 1, Dept Econ, Castellon De La Plana, Spain",
            "name": "Univ Jaume 1",
            "lat": 39.9865,
            "lng": -0.1234,
            "src": "ai",
            "model": "Aliyun:qwen-turbo-2025-04-28"
        },
        {
            "address": "Dept Comp Sci & Software Engn, Islamabad 44000, Pakistan",
            "name": "Dept Comp Sci & Software Engn",
            "lat": 33.6844,
            "lng": 73.0479,
            "src": "ai",
            "model": "Aliyun:qwen-plus-2025-12-01"
        },
        {
            "address": "Sun Yat Sen Univ, Sch Informat Management, Guangzhou 510275, Guangdong, China",
            "name": "Sun Yat Sen Univ",
            "lat": 23.084,
            "lng": 113.356,
            "src": "ai",
            "model": "Aliyun:qwen-flash"
        },
        {
            "address": "Yonsei Univ, Dept Lib & Informat Sci, Seoul 120140, South Korea",
            "name": "Yonsei Univ",
            "lat": 37.5665,
            "lng": 126.978,
            "src": "ai",
            "model": "Aliyun:qwen2.5-coder-14b-instruct"
        },
        {
            "address": "Wuhan Univ, Sch Informat Management, Wuhan, China",
            "name": "Wuhan Univ",
            "lat": 30.5928,
            "lng": 114.3055,
            "src": "ai",
            "model": "Aliyun:qwen2.5-coder-32b-instruct"
        },
        {
            "address": "King Abdulaziz Univ, Fac Comp & Informat Technol, Jeddah, Saudi Arabia",
            "name": "King Abdulaziz Univ",
            "lat": 21.5433,
            "lng": 39.1728,
            "src": "ai",
            "model": "Aliyun:qwen3-coder-flash"
        },
        {
            "address": "Tongji Univ, Lib, Shanghai, China",
            "name": "Tongji Univ",
            "lat": 31.2304,
            "lng": 121.4737,
            "src": "ai",
            "model": "Aliyun:qwen-turbo-2025-07-15"
        },
        {
            "address": "Royal Sch Library & Informat Sci, DK-2300 Copenhagen, Denmark",
            "name": "Royal Sch Library & Informat Sci",
            "lat": 55.6758,
            "lng": 12.5683,
            "src": "ai",
            "model": "Aliyun:tongyi-xiaomi-analysis-flash"
        },
        {
            "address": "Bar Ilan Univ, Dept Informat Sci, IL-52900 Ramat Gan, Israel",
            "name": "Bar Ilan University",
            "lat": 32.0667,
            "lng": 34.8167,
            "src": "ai",
            "model": "Aliyun:qwen3-coder-next"
        },
        {
            "address": "Wolverhampton Univ, Sch Comp & Informat Technol, Wolverhampton WV1 1SB, UK",
            "name": "Wolverhampton Univ",
            "lat": 52.5943,
            "lng": -1.9762,
            "src": "ai",
            "model": "Aliyun:qwen-turbo-2025-04-28"
        },
        {
            "address": "Nanjing Univ, Lab Data Intelligence & Interdisciplinary Innovat, Nanjing, China",
            "name": "Nanjing Univ",
            "lat": 32.0617,
            "lng": 118.7969,
            "src": "ai",
            "model": "Aliyun:qwen-flash"
        },
        {
            "address": "Nanjing Univ Finance & Econ, Coll Informat Engn, Nanjing, China",
            "name": "Nanjing Univ Finance & Econ",
            "lat": 32.0617,
            "lng": 118.7975,
            "src": "ai",
            "model": "Aliyun:qwen-turbo-2024-11-01"
        },
        {
            "address": "Louisiana State Univ, Dept Math, Baton Rouge, USA",
            "name": "Louisiana State Univ",
            "lat": 30.4581,
            "lng": -91.14,
            "src": "ai",
            "model": "Aliyun:qwen3-30b-a3b-instruct-2507"
        },
        {
            "address": "Sofia Univ St Kliment Ohridski, Univ Lib, 1 James Bourchier Blvd, Sofia 1164, Bulgaria",
            "name": "Sofia Univ St Kliment Ohridski",
            "lat": 42.6978,
            "lng": 23.3199,
            "src": "ai",
            "model": "Aliyun:qwen-turbo-latest"
        },
        {
            "address": "China Agr Univ Lib, Beijing, China",
            "name": "China Agr Univ Lib",
            "lat": 39.9042,
            "lng": 116.4074,
            "src": "ai",
            "model": "Aliyun:qwen3-coder-480b-a35b-instruct"
        },
        {
            "address": "Univ Montreal, Ecole Bibliothecon & Sci Informat, Montreal, PQ H3C 3J7, Canada",
            "name": "Univ Montreal, Ecole Bibliothecon & Sci Informat",
            "lat": 45.50889,
            "lng": -73.58778,
            "src": "ai",
            "model": "Aliyun:tongyi-xiaomi-analysis-pro"
        },
        {
            "address": "Univ Montreal, Ecole Bibliothecon & Sci Informat, Montreal, PQ, Canada",
            "name": "Univ Montreal",
            "lat": 45.5017,
            "lng": -73.5673,
            "src": "ai",
            "model": "Aliyun:qwen2.5-14b-instruct"
        },
        {
            "address": "Univ Quebec, OST, CIRST, Montreal, PQ H3C 3P8, Canada",
            "name": "Univ Quebec",
            "lat": 45.5017,
            "lng": -73.5673,
            "src": "ai",
            "model": "Aliyun:codeqwen1.5-7b-chat"
        },
        {
            "address": "Leiden Univ, Ctr Sci & Technol Studies CWTS, NL-2300 RA Leiden, Netherlands",
            "name": "Leiden Univ",
            "lat": 52.1587,
            "lng": 4.4936,
            "src": "ai",
            "model": "Aliyun:qwen3-coder-plus-2025-07-22"
        },
        {
            "address": "Univ Navarra, Ctr Invest Med Aplicada, E-31080 Pamplona, Spain",
            "name": "Univ Navarra",
            "lat": 42.7905,
            "lng": -1.6238,
            "src": "ai",
            "model": "Aliyun:qwen-turbo"
        },
        {
            "address": "Univ Amsterdam, Amsterdam Sch Commun Res ASCoR, NL-1012 WX Amsterdam, Netherlands",
            "name": "Univ Amsterdam",
            "lat": 52.3676,
            "lng": 4.9041,
            "src": "ai",
            "model": "Aliyun:deepseek-v3.1"
        },
        {
            "address": "Univ Lyon, Lyon, France",
            "name": "Univ Lyon",
            "lat": 45.7597,
            "lng": 4.8422,
            "src": "ai",
            "model": "Aliyun:qwen2.5-32b-instruct"
        },
        {
            "address": "Univ Lyon 1, Inst Camille Jordan, CNRS UMR 5208, F-69622 Villeurbanne, France",
            "name": "Univ Lyon 1",
            "lat": 45.7578,
            "lng": 4.8333,
            "src": "ai",
            "model": "Aliyun:qwen-plus-2025-07-14"
        },
        {
            "address": "Univ Lyon 1, ELICO, F-69622 Villeurbanne, France",
            "name": "Univ Lyon 1",
            "lat": 45.7875,
            "lng": 4.8833,
            "src": "ai",
            "model": "Aliyun:qwen2.5-7b-instruct-1m"
        },
        {
            "address": "Natl Taiwan Univ Sci & Technol, Grad Inst Patent, 43,Sec 4,Keelung Rd, Taipei 10607, Taiwan, Province of China",
            "name": "Natl Taiwan Univ Sci & Technol",
            "lat": 25.0569,
            "lng": 121.5818,
            "src": "ai",
            "model": "Aliyun:qwen3-next-80b-a3b-instruct"
        },
        {
            "address": "Natl Taiwan Univ, Dept Lib & Informat Sci, 1,Sec 4,Roosevelt Rd, Taipei 10617, Taiwan, Province of China",
            "name": "National Taiwan University",
            "lat": 25.03399,
            "lng": 121.56426,
            "src": "ai",
            "model": "Aliyun:qwen-coder-turbo-0919"
        },
        {
            "address": "Natl Taiwan Univ, Dept Mech Engn, 1,Sec 4,Roosevelt Rd, Taipei 10617, Taiwan, Province of China",
            "name": "Natl Taiwan Univ",
            "lat": 25.03405,
            "lng": 121.5649,
            "src": "ai",
            "model": "Aliyun:qwen2.5-7b-instruct"
        },
        {
            "address": "Natl Taiwan Univ, Inst Ind Engn, 1,Sec 4,Roosevelt Rd, Taipei 10617, Taiwan, Province of China",
            "name": "Natl Taiwan Univ",
            "lat": 25.03297,
            "lng": 121.56544,
            "src": "ai",
            "model": "Aliyun:qwen-plus-2025-04-28"
        },
        {
            "address": "Univ Ljubljana, Fac Civil & Geodet Engn, Ljubljana 1000, Slovenia",
            "name": "Univ Ljubljana",
            "lat": 46.05695,
            "lng": 14.50575,
            "src": "ai",
            "model": "Aliyun:qwen-coder-plus-1106"
        },
        {
            "address": "Univ Roma Tor Vergata, Dipartimento Ingn Impresa, I-00133 Rome, Italy",
            "name": "University of Rome Tor Vergata",
            "lat": 41.89572,
            "lng": 12.49437,
            "src": "ai",
            "model": "Aliyun:qwen-coder-turbo-latest"
        },
        {
            "address": "Univ Salerno, Dipartimento Sci Econ & Stat, Fisciano, Italy",
            "name": "Univ Salerno",
            "lat": 40.6617,
            "lng": 14.7932,
            "src": "ai",
            "model": "Aliyun:qwen-coder-plus-latest"
        },
        {
            "address": "Univ Bari A Moro, Dipartimento Econ Management & Diritto Impresa, Bari, Italy",
            "name": "University of Bari Aldo Moro",
            "lat": 41.1259,
            "lng": 16.8734,
            "src": "ai",
            "model": "Aliyun:qwen-plus-2025-12-01"
        },
        {
            "address": "Nanjing Univ Sci & Technol, Sch Econ & Management, Nanjing, China",
            "name": "Nanjing University of Science and Technology",
            "lat": 32.0586,
            "lng": 118.7944,
            "src": "ai",
            "model": "Aliyun:qwen-coder-turbo"
        },
        {
            "address": "Wuhan Univ, Ctr Studies Informat Resources, Wuhan, China",
            "name": "Wuhan Univ",
            "lat": 30.5928,
            "lng": 114.3055,
            "src": "ai",
            "model": "Aliyun:qwen2.5-coder-14b-instruct"
        },
        {
            "address": "Nanjing Univ, Sch Informat Management, Nanjing 210032, China",
            "name": "Nanjing Univ",
            "lat": 31.8257,
            "lng": 118.7795,
            "src": "ai",
            "model": "Aliyun:qwen2.5-coder-32b-instruct"
        },
        {
            "address": "Peking Univ, Dept Informat Management, Beijing 100871, China",
            "name": "Peking Univ",
            "lat": 39.9928,
            "lng": 116.3109,
            "src": "ai",
            "model": "Aliyun:qwen3-coder-flash"
        },
        {
            "address": "Nanjing Univ, Nanjing 210032, China",
            "name": "Nanjing Univ",
            "lat": 32.0603,
            "lng": 118.7969,
            "src": "ai",
            "model": "Aliyun:qwen-turbo-2025-07-15"
        },
        {
            "address": "San Jose State Univ, Lucas Coll, One Washington Sq, San Jose, USA",
            "name": "San Jose State Univ",
            "lat": 37.7749,
            "lng": -121.9494,
            "src": "ai",
            "model": "Aliyun:tongyi-xiaomi-analysis-flash"
        },
        {
            "address": "San Jose State Univ, Grad Sch Business, MIS Dept, One Washington Sq, San Jose, USA",
            "name": "San Jose State University",
            "lat": 37.3318,
            "lng": -121.8863,
            "src": "ai",
            "model": "Aliyun:qwen3-30b-a3b-instruct-2507"
        },
        {
            "address": "Indiana Univ, Sch Informat & Comp, Dept Info & Lib Sci, Wells Lib, Room 027,1320 E 10th St, Bloomington, USA",
            "name": "Indiana Univ",
            "lat": 39.1625,
            "lng": -86.5237,
            "src": "ai",
            "model": "Aliyun:qwen-turbo-2025-04-28"
        },
        {
            "address": "Dalian Maritime Univ, Coll Transportat Management, Dept Management Sci & Engn, Room 211,Guanli Bldg,1 Linghai Rd, Dalian 116026, Liaoning Provin, China",
            "name": "Dalian Maritime Univ",
            "lat": 38.9142,
            "lng": 121.5976,
            "src": "ai",
            "model": "Aliyun:qwen-flash"
        },
        {
            "address": "Indiana Univ, Sch Informat & Comp, Dept Info & Lib Sci, Wells Lib, Room 017,1320 E 10th St, Bloomington, USA",
            "name": "Indiana Univ",
            "lat": 39.162,
            "lng": -86.527,
            "src": "ai",
            "model": "Aliyun:qwen-turbo-latest"
        },
        {
            "address": "Leiden Univ, Ctr Sci & Technol Studies CWTS, NL-2333 AK Leiden, Netherlands",
            "name": "Leiden Univ",
            "lat": 52.1591,
            "lng": 4.4872,
            "src": "ai",
            "model": "Aliyun:qwen3-30b-a3b-instruct-2507"
        },
        {
            "address": "Nanjing Univ, Res Inst Data Management Innovat, Suzhou, China",
            "name": "Nanjing Univ",
            "lat": 32.0603,
            "lng": 118.7969,
            "src": "ai",
            "model": "Aliyun:qwen-turbo-latest"
        },
        {
            "address": "China Univ Petr East, Sch Econ & Management, Qingdao, China",
            "name": "China Univ Petr East",
            "lat": 36.0631,
            "lng": 120.3822,
            "src": "ai",
            "model": "Aliyun:qwen3-coder-480b-a35b-instruct"
        },
        {
            "address": "Univ Tecnol Fed Parana, Dept Ind Engn, Av Monteiro Lobato S-N, BR-84016210 Ponta Grossa, Parana, Brazil",
            "name": "Univ Tecnol Fed Parana",
            "lat": -22.95117,
            "lng": -52.14193,
            "src": "ai",
            "model": "Aliyun:tongyi-xiaomi-analysis-pro"
        },
        {
            "address": "Univ Fed Santa Maria, CCNE, Av Roraima 1000,Bldg 13,Off 1205 C, BR-97105900 Santa Maria, RS, Brazil",
            "name": "Univ Fed Santa Maria",
            "lat": -29.6498,
            "lng": -55.5926,
            "src": "ai",
            "model": "Aliyun:qwen2.5-14b-instruct"
        },
        {
            "address": "Univ Tecnol Fed Parana, Ave Sete Setembro 3165, BR-80230901 Curitiba, Parana, Brazil",
            "name": "Univ Tecnol Fed Parana",
            "lat": -25.43275,
            "lng": -54.59883,
            "src": "ai",
            "model": "Aliyun:codeqwen1.5-7b-chat"
        },
        {
            "address": "Univ Fed Parana, Sch Management, Ave Lothario Meissner 632, BR-80210170 Curitiba, Parana, Brazil",
            "name": "Univ Fed Parana",
            "lat": -25.4284,
            "lng": -49.2733,
            "src": "ai",
            "model": "Aliyun:qwen3-coder-plus-2025-07-22"
        },
        {
            "address": "Drexel Univ, Coll Comp & Informat, Philadelphia, USA",
            "name": "Drexel Univ",
            "lat": 39.9522,
            "lng": -75.1648,
            "src": "ai",
            "model": "Aliyun:qwen-turbo"
        },
        {
            "address": "INRA Lereco, F-44316 Nantes 03, France",
            "name": "INRA Lereco",
            "lat": 47.2184,
            "lng": -1.5536,
            "src": "ai",
            "model": "Aliyun:deepseek-v3.1"
        },
        {
            "address": "OST, Paris, France",
            "name": "OST",
            "lat": 48.8566,
            "lng": 2.3522,
            "src": "ai",
            "model": "Aliyun:qwen2.5-32b-instruct"
        },
        {
            "address": "Sapienza Univ Rome, Dept Comp Control & Management Engn DIAG, Via Ariosto 25, I-00185 Rome, Italy",
            "name": "Sapienza Univ Rome",
            "lat": 41.8919,
            "lng": 12.5113,
            "src": "ai",
            "model": "Aliyun:qwen-plus-2025-07-14"
        },
        {
            "address": "Gdansk Univ Technol, Fac Management & Econ, Narutowicza 11-12, PL-80233 Gdansk, Poland",
            "name": "Gdansk Univ Technol",
            "lat": 54.39137,
            "lng": 18.61507,
            "src": "ai",
            "model": "Aliyun:qwen2.5-7b-instruct-1m"
        },
        {
            "address": "Blockchain Res Lab, Max Brauer Allee 46, D-22765 Hamburg, Germany",
            "name": "Blockchain Res Lab",
            "lat": 53.55109,
            "lng": 9.99368,
            "src": "ai",
            "model": "Aliyun:qwen3-next-80b-a3b-instruct"
        },
        {
            "address": "Univ Hamburg, Von Melle Pk 5, D-20146 Hamburg, Germany",
            "name": "University of Hamburg",
            "lat": 53.5736,
            "lng": 9.9988,
            "src": "ai",
            "model": "Aliyun:qwen-coder-turbo-0919"
        },
        {
            "address": "KHBO, Assoc KU Leuven, B-8400 Oostende, Belgium",
            "name": "Assoc KU Leuven",
            "lat": 51.07306,
            "lng": 2.95278,
            "src": "ai",
            "model": "Aliyun:qwen2.5-7b-instruct"
        },
        {
            "address": "Zhejiang Univ, NIIM, Hangzhou, Zhejiang, China",
            "name": "Zhejiang Univ",
            "lat": 30.2448,
            "lng": 120.1464,
            "src": "ai",
            "model": "Aliyun:qwen-plus-2025-04-28"
        },
        {
            "address": "Katholieke Univ Leuven, Steunpunt O&O Indicatoren & Dept MSI, B-3000 Louvain, Belgium",
            "name": "Katholieke Univ Leuven",
            "lat": 50.8792,
            "lng": 4.6997,
            "src": "ai",
            "model": "Aliyun:qwen-coder-plus-1106"
        },
        {
            "address": "Wuhan Univ, Sch Resource & Environm Sci, Wuhan 430079, China",
            "name": "Wuhan University",
            "lat": 30.5928,
            "lng": 114.3055,
            "src": "ai",
            "model": "Aliyun:qwen-coder-turbo-latest"
        },
        {
            "address": "Wuhan Univ, Int Sch Software, Wuhan 430079, China",
            "name": "Wuhan Univ",
            "lat": 30.5928,
            "lng": 114.3055,
            "src": "ai",
            "model": "Aliyun:qwen-coder-plus-latest"
        },
        {
            "address": "Radboud Univ Nijmegen, Nijmegen Sch Management, Heyendaalseweg 141, NL-6525 AJ Nijmegen, Netherlands",
            "name": "Radboud University Nijmegen",
            "lat": 51.7944,
            "lng": 5.8235,
            "src": "ai",
            "model": "Aliyun:qwen-plus-2025-12-01"
        },
        {
            "address": "LUISS Guido Carli Univ, Dept Business & Management, Viale Romania,32, I-00197 Rome, Italy",
            "name": "LUISS Guido Carli University",
            "lat": 41.8956,
            "lng": 12.4839,
            "src": "ai",
            "model": "Aliyun:qwen-coder-turbo"
        },
        {
            "address": "Univ Lugano, Fac Commun Culture & Soc, Via Buffi 13, CH-6900 Lugano, Switzerland",
            "name": "Univ Lugano",
            "lat": 46.0524,
            "lng": 8.9378,
            "src": "ai",
            "model": "Aliyun:qwen2.5-coder-14b-instruct"
        },
        {
            "address": "Ludwig Maximilians Univ Munchen, Inst Leadership & Org, Geschwister Scholl Pl 1, D-80539 Munich, Germany",
            "name": "Ludwig Maximilians Univ Munchen",
            "lat": 48.1374,
            "lng": 11.5756,
            "src": "ai",
            "model": "Aliyun:qwen2.5-coder-32b-instruct"
        },
        {
            "address": "Cent China Normal Univ, Sch Informat Management, Wuhan 430079, China",
            "name": "Cent China Normal Univ",
            "lat": 30.5728,
            "lng": 114.3162,
            "src": "ai",
            "model": "Aliyun:qwen3-coder-flash"
        },
        {
            "address": "Univ North Texas, Dept Informat Sci, Denton, USA",
            "name": "Univ North Texas",
            "lat": 33.2167,
            "lng": -97.1333,
            "src": "ai",
            "model": "Aliyun:qwen-turbo-2025-07-15"
        },
        {
            "address": "Univ North Texas, Intelligent Data Engn & Analyt Lab, Denton, USA",
            "name": "Univ North Texas",
            "lat": 36.1636,
            "lng": -95.4312,
            "src": "ai",
            "model": "Aliyun:tongyi-xiaomi-analysis-flash"
        },
        {
            "address": "Univ Illinois, Sch Informat Sci, Champaign, USA",
            "name": "University of Illinois",
            "lat": 40.1106,
            "lng": -88.2073,
            "src": "ai",
            "model": "Aliyun:qwen3-coder-next"
        },
        {
            "address": "Leiden Univ, Ctr Sci & Technol Studies, NL-2300 AX Leiden, Netherlands",
            "name": "Leiden Univ",
            "lat": 52.1563,
            "lng": 4.4867,
            "src": "ai",
            "model": "Aliyun:qwen-turbo-2025-04-28"
        },
        {
            "address": "Yonsei Univ, Dept Lib & Informat Sci, Seoul 120749, South Korea",
            "name": "Yonsei Univ",
            "lat": 37.5665,
            "lng": 126.978,
            "src": "ai",
            "model": "Aliyun:qwen-flash"
        },
        {
            "address": "Indiana Univ, Dept Informat & Lib Sci, Bloomington, USA",
            "name": "Indiana Univ, Dept Informat & Lib Sci",
            "lat": 39.1653,
            "lng": -86.5254,
            "src": "ai",
            "model": "Aliyun:qwen-turbo-2024-11-01"
        },
        {
            "address": "Univ Fribourg, Dept Phys, CH-1700 Fribourg, Switzerland",
            "name": "University of Fribourg",
            "lat": 46.8011,
            "lng": 7.134,
            "src": "ai",
            "model": "Aliyun:qwen3-30b-a3b-instruct-2507"
        },
        {
            "address": "Chinese Acad Sci, Chongqing Inst Green & Intelligent Technol, Chongqing 400714, China",
            "name": "Chinese Academy of Sciences",
            "lat": 29.563,
            "lng": 106.5517,
            "src": "ai",
            "model": "Aliyun:qwen-turbo-latest"
        },
        {
            "address": "Univ Sussex, SPRU, Brighton, E Sussex, UK",
            "name": "Univ Sussex",
            "lat": 50.8367,
            "lng": -0.1367,
            "src": "ai",
            "model": "Aliyun:qwen3-coder-480b-a35b-instruct"
        },
        {
            "address": "Zhejiang Univ, Dept Informat Resource Management, Hangzhou 310027, China",
            "name": "Zhejiang Univ, Dept Informat Resource Management",
            "lat": 30.26967,
            "lng": 120.18667,
            "src": "ai",
            "model": "Aliyun:tongyi-xiaomi-analysis-pro"
        },
        {
            "address": "Tsinghua Univ, Sch Publ Policy & Management, Beijing 100084, China",
            "name": "Tsinghua Univ",
            "lat": 39.9946,
            "lng": 116.3072,
            "src": "ai",
            "model": "Aliyun:qwen2.5-14b-instruct"
        },
        {
            "address": "Nanjing Univ, Sch Informat Management, Nanjing 210093, Jiangsu, China",
            "name": "Nanjing Univ",
            "lat": 32.0603,
            "lng": 118.7969,
            "src": "ai",
            "model": "Aliyun:qwen-turbo-latest"
        },
        {
            "address": "Univ Tennessee, Coll Commun & Informat, Sch Informat Sci, Knoxville, USA",
            "name": "Univ Tennessee",
            "lat": 35.9601,
            "lng": -83.9208,
            "src": "ai",
            "model": "Aliyun:qwen3-coder-plus-2025-07-22"
        },
        {
            "address": "Adm Headquarters Max Planck Soc, Div Sci & Innovat Studies, Hofgartenstr 8, D-80539 Munich, Germany",
            "name": "Max Planck Soc",
            "lat": 48.1374,
            "lng": 11.5755,
            "src": "ai",
            "model": "Aliyun:qwen-turbo"
        },
        {
            "address": "Shanxi Univ, Sch Management, Taiyuan 030006, Shanxi, China",
            "name": "Shanxi Univ",
            "lat": 37.87,
            "lng": 112.564,
            "src": "ai",
            "model": "Aliyun:deepseek-v3.1"
        },
        {
            "address": "Shanxi Univ, Div Dev & Planning, Taiyuan 030006, Shanxi, China",
            "name": "Shanxi Univ",
            "lat": 37.8731,
            "lng": 112.5653,
            "src": "ai",
            "model": "Aliyun:qwen2.5-32b-instruct"
        },
        {
            "address": "Lublin Univ Technol, Lublin, Poland",
            "name": "Lublin Univ Technol",
            "lat": 51.2465,
            "lng": 22.5684,
            "src": "ai",
            "model": "Aliyun:qwen-plus-2025-07-14"
        },
        {
            "address": "Renmin Univ China, Sch Business, Beijing 100872, China",
            "name": "Renmin Univ China",
            "lat": 39.9262,
            "lng": 116.4168,
            "src": "ai",
            "model": "Aliyun:qwen2.5-7b-instruct-1m"
        },
        {
            "address": "Beihang Univ, Sch Econ & Management, Beijing 100191, China",
            "name": "Beihang Univ",
            "lat": 39.9369,
            "lng": 116.3879,
            "src": "ai",
            "model": "Aliyun:qwen3-next-80b-a3b-instruct"
        },
        {
            "address": "Xidian Univ, Sch Econ & Management, Xian 710126, China",
            "name": "Xidian University",
            "lat": 34.2588,
            "lng": 108.9534,
            "src": "ai",
            "model": "Aliyun:qwen-coder-turbo-0919"
        },
        {
            "address": "Tech Univ Chemnitz, Inst Phys, D-09107 Chemnitz, Germany",
            "name": "Tech Univ Chemnitz",
            "lat": 50.9372,
            "lng": 13.0389,
            "src": "ai",
            "model": "Aliyun:qwen2.5-7b-instruct"
        },
        {
            "address": "Erasmus Univ, Erasmus Sch Econ, Inst Econometr, NL-3000 DR Rotterdam, Netherlands",
            "name": "Erasmus Univ",
            "lat": 51.92442,
            "lng": 4.46666,
            "src": "ai",
            "model": "Aliyun:qwen-plus-2025-04-28"
        },
        {
            "address": "Univ Witwatersrand, Grad Sch Business Adm, 2 St Davids Pl, ZA-2193 Johannesburg, South Africa",
            "name": "Univ Witwatersrand",
            "lat": -26.2041,
            "lng": 28.0473,
            "src": "ai",
            "model": "Aliyun:qwen-coder-plus-1106"
        },
        {
            "address": "Univ Pisa, Dipartimento Fis Enrico Fermi, I-56127 Pisa, Italy",
            "name": "University of Pisa",
            "lat": 43.7194,
            "lng": 10.4008,
            "src": "ai",
            "model": "Aliyun:qwen-coder-turbo-latest"
        },
        {
            "address": "Yonsei Univ, Dept Sociol, Seoul, South Korea",
            "name": "Yonsei Univ",
            "lat": 37.5665,
            "lng": 126.978,
            "src": "ai",
            "model": "Aliyun:qwen-coder-plus-latest"
        },
        {
            "address": "Soongsil Univ, Sch AI Convergence, Seoul, South Korea",
            "name": "Soongsil Univ",
            "lat": 37.4902,
            "lng": 126.9524,
            "src": "ai",
            "model": "Aliyun:qwen-plus-2025-12-01"
        },
        {
            "address": "Nanjing Med Univ, Nanjing 210029, Jiangsu, China",
            "name": "Nanjing Medical University",
            "lat": 32.06577,
            "lng": 118.7792,
            "src": "ai",
            "model": "Aliyun:qwen-coder-turbo"
        },
        {
            "address": "Nanjing Univ, Sch Elect Sci & Engn, State Key Lab Analyt Chem Life Sci, Nanjing 210093, Jiangsu, China",
            "name": "Nanjing Univ",
            "lat": 32.0604,
            "lng": 118.7765,
            "src": "ai",
            "model": "Aliyun:qwen2.5-coder-14b-instruct"
        },
        {
            "address": "Swiss Fed Inst Technol, Professorship Social Psychol & Res Higher Educ, Muehlegasse 21, CH-8001 Zurich, Switzerland",
            "name": "Swiss Fed Inst Technol",
            "lat": 47.36865,
            "lng": 8.53918,
            "src": "ai",
            "model": "Aliyun:qwen2.5-coder-32b-instruct"
        },
        {
            "address": "Univ Complutense, Dept Metodol, Fac Psicol, Madrid 28223, Spain",
            "name": "Univ Complutense",
            "lat": 40.4381,
            "lng": -3.6957,
            "src": "ai",
            "model": "Aliyun:qwen3-coder-flash"
        },
        {
            "address": "Indiana Univ, Ctr Complex Networks & Syst Res, Sch Informat Comp & Engn, Bloomington, USA",
            "name": "Indiana Univ",
            "lat": 39.162,
            "lng": -86.524,
            "src": "ai",
            "model": "Aliyun:qwen-turbo-2025-07-15"
        },
        {
            "address": "Cumhuriyet Univ, Fac Educ, TR-58100 Sivas, Turkey",
            "name": "Cumhuriyet Univ",
            "lat": 39.3667,
            "lng": 38.4333,
            "src": "ai",
            "model": "Aliyun:tongyi-xiaomi-analysis-flash"
        },
        {
            "address": "Univ Valencia, Dept Hist Ciencia & Documentac, E-46003 Valencia, Spain",
            "name": "University of Valencia",
            "lat": 39.4699,
            "lng": -0.3763,
            "src": "ai",
            "model": "Aliyun:qwen3-coder-next"
        },
        {
            "address": "Univ Catolica Valencia San Vicente Martir, Inst Documentac & Tecnol Informac, Plaza Cisneros 4, Valencia, Spain",
            "name": "Univ Catolica Valencia San Vicente Martir",
            "lat": 39.4692,
            "lng": -0.3757,
            "src": "ai",
            "model": "Aliyun:qwen-turbo-2025-04-28"
        },
        {
            "address": "Ingenio CSIC UPV, Valencia, Spain",
            "name": "Ingenio CSIC UPV",
            "lat": 39.4697,
            "lng": -0.3774,
            "src": "ai",
            "model": "Aliyun:qwen-flash"
        },
        {
            "address": "UISYS Univ Valencia, Valencia, Spain",
            "name": "UISYS Univ Valencia",
            "lat": 39.46975,
            "lng": -0.37642,
            "src": "ai",
            "model": "Aliyun:qwen-turbo-2024-11-01"
        },
        {
            "address": "Univ Tehran, Inst Biochem & Biophys, Lab Syst Biol & Bioinformat LBB, Tehran, Iran",
            "name": "University of Tehran, Institute of Biochemistry and Biophysics, Laboratory of Systems Biology and Bioinformatics",
            "lat": 35.7108,
            "lng": 51.4263,
            "src": "ai",
            "model": "Aliyun:qwen3-30b-a3b-instruct-2507"
        },
        {
            "address": "Sharif Univ Technol, Dept Comp Engn, Tehran, Iran",
            "name": "Sharif Univ Technol",
            "lat": 35.7106,
            "lng": 51.4228,
            "src": "ai",
            "model": "Aliyun:qwen-turbo-latest"
        },
        {
            "address": "Univ Tehran, Coll Engn, Dept Algorithms & Computat, Tehran, Iran",
            "name": "Univ Tehran",
            "lat": 35.6892,
            "lng": 51.389,
            "src": "ai",
            "model": "Aliyun:qwen3-coder-480b-a35b-instruct"
        },
        {
            "address": "LAMSADE, CNRS, UMR 7243, Pl Marechal de Lattre de Tassigny, F-75775 Paris 16, France",
            "name": "LAMSADE, CNRS, UMR 7243",
            "lat": 48.86415,
            "lng": 2.29242,
            "src": "ai",
            "model": "Aliyun:tongyi-xiaomi-analysis-pro"
        },
        {
            "address": "Univ Paris 09, Pl Marechal de Lattre de Tassigny, F-75775 Paris 16, France",
            "name": "Univ Paris 09",
            "lat": 48.877,
            "lng": 2.293,
            "src": "ai",
            "model": "Aliyun:qwen2.5-14b-instruct"
        },
        {
            "address": "Univ Ghent, Dept Data Anal, H Dunantlaan 1, B-9000 Ghent, Belgium",
            "name": "Univ Ghent, Dept Data Anal",
            "lat": 51.0365,
            "lng": 3.7112,
            "src": "ai",
            "model": "Aliyun:codeqwen1.5-7b-chat"
        },
        {
            "address": "Univ Melbourne, Dept Management & Mkt, Melbourne, Vic 3010, Australia",
            "name": "Univ Melbourne",
            "lat": -37.8136,
            "lng": 144.9631,
            "src": "ai",
            "model": "Aliyun:qwen3-coder-plus-2025-07-22"
        },
        {
            "address": "Manchester Business Sch, Manchester M15 6PB, Lancs, UK",
            "name": "Manchester Business Sch",
            "lat": 53.4782,
            "lng": -2.2369,
            "src": "ai",
            "model": "Aliyun:qwen-turbo"
        },
        {
            "address": "Univ Bergamo, Dept Econ, Bergamo, Italy",
            "name": "Univ Bergamo",
            "lat": 45.694,
            "lng": 9.67,
            "src": "ai",
            "model": "Aliyun:deepseek-v3.1"
        },
        {
            "address": "Warsaw Univ Technol, Fac Math & Informat Sci, Ul Koszykowa 75, PL-00662 Warsaw, Poland",
            "name": "Warsaw Univ Technol",
            "lat": 52.205,
            "lng": 21.012,
            "src": "ai",
            "model": "Aliyun:qwen2.5-32b-instruct"
        },
        {
            "address": "Polish Acad Sci, Syst Res Inst, Ul Newelska 6, PL-01447 Warsaw, Poland",
            "name": "Polish Acad Sci",
            "lat": 52.2297,
            "lng": 21.0122,
            "src": "ai",
            "model": "Aliyun:qwen-plus-2025-07-14"
        },
        {
            "address": "Warsaw Univ Technol, Fac Phys, Ul Koszykowa 75, PL-00662 Warsaw, Poland",
            "name": "Warsaw Univ Technol",
            "lat": 52.19375,
            "lng": 21.04836,
            "src": "ai",
            "model": "Aliyun:qwen2.5-7b-instruct-1m"
        },
        {
            "address": "Max Planck Inst Solid State Res, Heisenbergstr 1, D-70569 Stuttgart, Germany",
            "name": "Max Planck Inst Solid State Res",
            "lat": 48.7758,
            "lng": 9.1815,
            "src": "ai",
            "model": "Aliyun:qwen3-next-80b-a3b-instruct"
        },
        {
            "address": "Adm Headquarters Max Planck Soc, Sci Policy & Strategy Dept, Hofgartenstr 8, D-80539 Munich, Germany",
            "name": "Max Planck Society",
            "lat": 48.1622,
            "lng": 11.5775,
            "src": "ai",
            "model": "Aliyun:qwen-coder-turbo-0919"
        },
        {
            "address": "CNR, Inst Syst Anal & Comp Sci IASI CNR, Lab Studies Res Evaluat, Rome, Italy",
            "name": "Inst Syst Anal & Comp Sci IASI CNR",
            "lat": 41.9028,
            "lng": 12.4545,
            "src": "ai",
            "model": "Aliyun:qwen2.5-7b-instruct"
        },
        {
            "address": "Univ Roma Tor Vergata, Dept Engn & Management, Rome, Italy",
            "name": "Univ Roma Tor Vergata",
            "lat": 41.9028,
            "lng": 12.5548,
            "src": "ai",
            "model": "Aliyun:qwen-plus-2025-04-28"
        },
        {
            "address": "Nanjing Univ Sci & Technol, Sch Econ & Management, Nanjing, Jiangsu, China",
            "name": "Nanjing Univ Sci & Technol",
            "lat": 32.06025,
            "lng": 118.79687,
            "src": "ai",
            "model": "Aliyun:qwen-coder-plus-1106"
        },
        {
            "address": "Indiana Univ, Sch Informat Comp & Engn, Ctr Complex Networks & Syst Res, Bloomington, USA",
            "name": "Indiana Univ",
            "lat": 39.1653,
            "lng": -86.5264,
            "src": "ai",
            "model": "Aliyun:qwen3-coder-480b-a35b-instruct"
        },
        {
            "address": "Shandong Normal Univ, Sch Management Sci & Engn, Jinan, Shandong, China",
            "name": "Shandong Normal Univ",
            "lat": 36.6519,
            "lng": 117.0608,
            "src": "ai",
            "model": "Aliyun:qwen-coder-plus-latest"
        },
        {
            "address": "Univ Texas Austin, Austin, USA",
            "name": "University of Texas at Austin",
            "lat": 30.2849,
            "lng": -97.7341,
            "src": "ai",
            "model": "Aliyun:qwen-plus-2025-12-01"
        },
        {
            "address": "ETH, CH-8092 Zurich, Switzerland",
            "name": "ETH",
            "lat": 47.371,
            "lng": 8.546,
            "src": "ai",
            "model": "Aliyun:qwen-coder-turbo"
        },
        {
            "address": "Univ Zurich, Evaluat Off, CH-8006 Zurich, Switzerland",
            "name": "Univ Zurich",
            "lat": 47.3769,
            "lng": 8.5417,
            "src": "ai",
            "model": "Aliyun:qwen2.5-coder-14b-instruct"
        },
        {
            "address": "Beijing Forestry Univ, Sch Econ & Management, Beijing 100083, China",
            "name": "Beijing Forestry Univ",
            "lat": 39.9042,
            "lng": 116.4074,
            "src": "ai",
            "model": "Aliyun:qwen2.5-coder-32b-instruct"
        },
        {
            "address": "Beijing Univ Technol, Coll Econ & Management, Res Base Beijing Modern Mfg Dev, Beijing 100124, China",
            "name": "Beijing Univ Technol",
            "lat": 39.9586,
            "lng": 116.3456,
            "src": "ai",
            "model": "Aliyun:qwen3-coder-flash"
        },
        {
            "address": "Agr Informat Inst CAAS, Beijing 100081, China",
            "name": "Agr Informat Inst CAAS",
            "lat": 39.9042,
            "lng": 116.4074,
            "src": "ai",
            "model": "Aliyun:qwen-turbo-2025-07-15"
        },
        {
            "address": "Carleton Univ, Sch Comp Sci, Ottawa, ON, Canada",
            "name": "Carleton Univ",
            "lat": 45.4236,
            "lng": -75.6974,
            "src": "ai",
            "model": "Aliyun:tongyi-xiaomi-analysis-flash"
        },
        {
            "address": "Univ Amsterdam, Amsterdam Sch Commun Res ASCoR, NL-1012 CX Amsterdam, Netherlands",
            "name": "Univ Amsterdam",
            "lat": 52.3667,
            "lng": 4.8945,
            "src": "ai",
            "model": "Aliyun:qwen2.5-14b-instruct"
        },
        {
            "address": "Univ Granada, Fac Comunicac & Documentat, Granada, Spain",
            "name": "Univ Granada",
            "lat": 37.1854,
            "lng": -3.5926,
            "src": "ai",
            "model": "Aliyun:qwen-turbo-2025-04-28"
        },
        {
            "address": "Leiden Univ, CWTS, Leiden, Netherlands",
            "name": "Leiden Univ",
            "lat": 52.1551,
            "lng": 4.4876,
            "src": "ai",
            "model": "Aliyun:qwen-flash"
        },
        {
            "address": "Stellenbosch Univ, DST NRF Ctr Excellence Scientometr & Sci, Technol & Innovat Policy, Stellenbosch, South Africa",
            "name": "Stellenbosch Univ",
            "lat": -33.9249,
            "lng": 18.8241,
            "src": "ai",
            "model": "Aliyun:qwen-turbo-2024-11-01"
        },
        {
            "address": "Shenzhen Univ, Coll Management, Shenzhen 518060, China",
            "name": "Shenzhen University",
            "lat": 22.5431,
            "lng": 114.0579,
            "src": "ai",
            "model": "Aliyun:qwen3-30b-a3b-instruct-2507"
        },
        {
            "address": "Univ Chinese Acad Sci, Sch Publ Policy & Management, Beijing 100049, China",
            "name": "Univ Chinese Acad Sci",
            "lat": 39.9042,
            "lng": 116.4074,
            "src": "ai",
            "model": "Aliyun:qwen-turbo-latest"
        },
        {
            "address": "Univ Chinese Acad Sci, Sch Econ & Management, Beijing 100190, China",
            "name": "Univ Chinese Acad Sci",
            "lat": 39.9042,
            "lng": 116.4074,
            "src": "ai",
            "model": "Aliyun:qwen3-coder-480b-a35b-instruct"
        },
        {
            "address": "Univ Nordland, Fac Biosci & Aquaculture, N-8049 Bodo, Norway",
            "name": "Univ Nordland, Fac Biosci & Aquaculture",
            "lat": 67.2667,
            "lng": 14.5333,
            "src": "ai",
            "model": "Aliyun:tongyi-xiaomi-analysis-pro"
        },
        {
            "address": "Univ Calif Los Angeles, Ctr Embedded Networked Sensing, Los Angeles, USA",
            "name": "Univ Calif Los Angeles",
            "lat": 34.06895,
            "lng": -118.44512,
            "src": "ai",
            "model": "Aliyun:qwen2.5-14b-instruct"
        },
        {
            "address": "Los Alamos Natl Lab, Ctr Non Linear Studies, T 7, Los Alamos, USA",
            "name": "Los Alamos Natl Lab",
            "lat": 36.2525,
            "lng": -106.6215,
            "src": "ai",
            "model": "Aliyun:codeqwen1.5-7b-chat"
        },
        {
            "address": "GESIS Leibniz Inst Social Sci, Unter Sachsenhausen 6-8, D-50667 Cologne, Germany",
            "name": "GESIS Leibniz Inst Social Sci",
            "lat": 50.9333,
            "lng": 6.95,
            "src": "ai",
            "model": "Aliyun:qwen3-coder-plus-2025-07-22"
        },
        {
            "address": "Complex Sci Hub Vienna, Josefstadter Str 39, A-1080 Vienna, Austria",
            "name": "Complex Sci Hub Vienna",
            "lat": 48.2082,
            "lng": 16.3731,
            "src": "ai",
            "model": "Aliyun:qwen-turbo"
        },
        {
            "address": "ZBW Leibniz Informat Ctr Econ, Dusternbrooker Weg 120, D-24105 Kiel, Germany",
            "name": "ZBW Leibniz Informat Ctr Econ",
            "lat": 54.3213,
            "lng": 10.1349,
            "src": "ai",
            "model": "Aliyun:deepseek-v3.1"
        },
        {
            "address": "Heinrich Heine Univ Dusseldorf, Univ Str 1, D-40225 Dusseldorf, Germany",
            "name": "Heinrich Heine Univ Dusseldorf",
            "lat": 51.2142,
            "lng": 6.7798,
            "src": "ai",
            "model": "Aliyun:qwen2.5-32b-instruct"
        },
        {
            "address": "German Ctr Higher Educ Res & Sci Studies, DZHW7 Schutzenstr 6a, D-10117 Berlin, Germany",
            "name": "German Ctr Higher Educ Res & Sci Studies",
            "lat": 52.52,
            "lng": 13.405,
            "src": "ai",
            "model": "Aliyun:qwen-plus-2025-07-14"
        },
        {
            "address": "Indian Inst Technol Madras, Dept Management Studies, Chennai, India",
            "name": "Indian Inst Technol Madras",
            "lat": 13.05287,
            "lng": 80.24685,
            "src": "ai",
            "model": "Aliyun:qwen2.5-7b-instruct-1m"
        },
        {
            "address": "Katholieke Univ Leuven, Steunpunt O&O Statistieken, Dekenstraat 2, B-3000 Louvain, Belgium",
            "name": "Katholieke Univ Leuven",
            "lat": 50.8799,
            "lng": 4.7007,
            "src": "ai",
            "model": "Aliyun:qwen3-next-80b-a3b-instruct"
        },
        {
            "address": "Hungarian Acad Sci, IRPS, Budapest, Hungary",
            "name": "Hungarian Academy of Sciences",
            "lat": 47.5166,
            "lng": 19.0833,
            "src": "ai",
            "model": "Aliyun:qwen-coder-turbo-0919"
        },
        {
            "address": "SciTech Strategies Inc, Berwyn, USA",
            "name": "SciTech Strategies Inc",
            "lat": 40.0115,
            "lng": -75.6586,
            "src": "ai",
            "model": "Aliyun:qwen2.5-7b-instruct"
        },
        {
            "address": "SciTech Strategies Inc, Albuquerque, USA",
            "name": "SciTech Strategies Inc",
            "lat": 35.0844,
            "lng": -106.6494,
            "src": "ai",
            "model": "Aliyun:qwen-plus-2025-04-28"
        },
        {
            "address": "So Cross Univ, Lismore, NSW 2480, Australia",
            "name": "So Cross Univ",
            "lat": -29.6751,
            "lng": 153.1084,
            "src": "ai",
            "model": "Aliyun:qwen-coder-plus-1106"
        },
        {
            "address": "Chinese Acad Sci, Natl Sci Lib, Beijing 100190, China",
            "name": "Chinese Academy of Sciences",
            "lat": 39.9042,
            "lng": 116.4074,
            "src": "ai",
            "model": "Aliyun:qwen-coder-turbo-latest"
        },
        {
            "address": "Fujian Normal Univ, Fuzhou 350007, China",
            "name": "Fujian Normal Univ",
            "lat": 26.0789,
            "lng": 119.3041,
            "src": "ai",
            "model": "Aliyun:qwen-coder-plus-latest"
        },
        {
            "address": "Econ & Social Res Inst, Dublin, Ireland",
            "name": "Econ & Social Res Inst",
            "lat": 53.3498,
            "lng": -6.2603,
            "src": "ai",
            "model": "Aliyun:qwen-plus-2025-12-01"
        },
        {
            "address": "Vrije Univ Amsterdam, Inst Environm Studies, Amsterdam, Netherlands",
            "name": "Vrije Universiteit Amsterdam",
            "lat": 52.37919,
            "lng": 4.90431,
            "src": "ai",
            "model": "Aliyun:qwen-coder-turbo"
        },
        {
            "address": "Carnegie Mellon Univ, Dept Engn & Publ Policy, Pittsburgh, USA",
            "name": "Carnegie Mellon Univ",
            "lat": 40.4433,
            "lng": -79.9436,
            "src": "ai",
            "model": "Aliyun:qwen2.5-coder-14b-instruct"
        },
        {
            "address": "Univ Las Palmas Gran Canaria, Dept Quantitat Methods Econ, Las Palmas Gran Canaria 35017, Spain",
            "name": "Univ Las Palmas Gran Canaria",
            "lat": 28.09964,
            "lng": -15.41303,
            "src": "ai",
            "model": "Aliyun:qwen2.5-coder-32b-instruct"
        },
        {
            "address": "Politecn Torino, DIGEP Dept Management & Prod Syst, I-10129 Turin, Italy",
            "name": "Politecn Torino",
            "lat": 45.0667,
            "lng": 7.6667,
            "src": "ai",
            "model": "Aliyun:qwen3-coder-flash"
        },
        {
            "address": "Univ Udine, Dept Math & Comp Sci, I-33100 Udine, Italy",
            "name": "Univ Udine",
            "lat": 45.9631,
            "lng": 13.3782,
            "src": "ai",
            "model": "Aliyun:qwen-turbo-2025-07-15"
        },
        {
            "address": "Univ Cagliari, Dept Math & Comp Sci, Via Osped 72, I-09124 Cagliari, Italy",
            "name": "Univ Cagliari",
            "lat": 41.5113,
            "lng": 9.1913,
            "src": "ai",
            "model": "Aliyun:tongyi-xiaomi-analysis-flash"
        },
        {
            "address": "Copenhagen Univ Lib, Royal Lib, Fac Lib Nat & Hlth Sci, Copenhagen, Denmark",
            "name": "Copenhagen University Library",
            "lat": 55.6761,
            "lng": 12.5683,
            "src": "ai",
            "model": "Aliyun:qwen3-coder-next"
        },
        {
            "address": "Univ Copenhagen, Fac Hlth & Med Sci, SUND Res & Innovat, Copenhagen, Denmark",
            "name": "Univ Copenhagen",
            "lat": 55.6761,
            "lng": 12.5674,
            "src": "ai",
            "model": "Aliyun:qwen-turbo-2025-04-28"
        },
        {
            "address": "Drexel Univ, Coll Informat Sci & Technol, Philadelphia, USA",
            "name": "Drexel University",
            "lat": 39.9526,
            "lng": -75.1932,
            "src": "ai",
            "model": "Aliyun:qwen-flash"
        },
        {
            "address": "Vistula Univ, Fac Business & Int Relat, PL-02787 Warsaw, Poland",
            "name": "Vistula Univ",
            "lat": 52.22977,
            "lng": 21.01178,
            "src": "ai",
            "model": "Aliyun:qwen-turbo-2024-11-01"
        },
        {
            "address": "SGH Warsaw Sch Econ, Dept Quantitat Econ, PL-02554 Warsaw, Poland",
            "name": "SGH Warsaw School of Economics",
            "lat": 52.23705,
            "lng": 21.01753,
            "src": "ai",
            "model": "Aliyun:qwen3-30b-a3b-instruct-2507"
        },
        {
            "address": "Antiplagiat Co, Moscow, Russia",
            "name": "Antiplagiat Co",
            "lat": 55.7558,
            "lng": 37.6173,
            "src": "ai",
            "model": "Aliyun:qwen-turbo-latest"
        },
        {
            "address": "Ryerson Univ, Dept Mech & Ind Engn, Toronto, ON, Canada",
            "name": "Ryerson Univ",
            "lat": 43.6532,
            "lng": -79.3832,
            "src": "ai",
            "model": "Aliyun:qwen3-coder-480b-a35b-instruct"
        },
        {
            "address": "Cape Breton Univ, Shannon Sch Business, Sydney, NS, Canada",
            "name": "Cape Breton Univ, Shannon Sch Business",
            "lat": 46.1167,
            "lng": -60.1333,
            "src": "ai",
            "model": "Aliyun:tongyi-xiaomi-analysis-pro"
        },
        {
            "address": "Wuhan Univ, Res Ctr Chinese Sci Evaluat RCCSE, Wuhan 430072, China",
            "name": "Wuhan Univ",
            "lat": 30.5278,
            "lng": 114.3694,
            "src": "ai",
            "model": "Aliyun:qwen2.5-14b-instruct"
        },
        {
            "address": "Shandong Univ Polit Sci & Law, Coll Cyber Secur, Jinan 250014, Shandong, China",
            "name": "Shandong Univ Polit Sci & Law, Coll Cyber Secur",
            "lat": 36.67284,
            "lng": 117.03571,
            "src": "ai",
            "model": "Aliyun:codeqwen1.5-7b-chat"
        },
        {
            "address": "Univ Carlos III Madrid, Dept Econ, E-28903 Getafe, Spain",
            "name": "Univ Carlos III Madrid",
            "lat": 40.3265,
            "lng": -3.7656,
            "src": "ai",
            "model": "Aliyun:qwen3-coder-plus-2025-07-22"
        },
        {
            "address": "Trakya Univ, Dept Comp Engn, Edirne, Turkey",
            "name": "Trakya Univ",
            "lat": 41.7935,
            "lng": 26.8138,
            "src": "ai",
            "model": "Aliyun:qwen-turbo"
        },
        {
            "address": "Eskisehir Tech Univ, Dept Comp Engn, Eskisehir, Turkey",
            "name": "Eskisehir Tech Univ",
            "lat": 39.7767,
            "lng": 30.5206,
            "src": "ai",
            "model": "Aliyun:deepseek-v3.1"
        },
        {
            "address": "Dalian Univ Technol, Inst Sci Sci & S&T Management, WISE Lab, Dalian 116024, China",
            "name": "Dalian Univ Technol",
            "lat": 38.95,
            "lng": 121.617,
            "src": "ai",
            "model": "Aliyun:qwen2.5-32b-instruct"
        },
        {
            "address": "Univ Copenhagen, Dept Informat Studies, Njalsgade 76, DK-2300 Copenhagen S, Denmark",
            "name": "Univ Copenhagen",
            "lat": 55.6761,
            "lng": 12.56834,
            "src": "ai",
            "model": "Aliyun:qwen-plus-2025-07-14"
        },
        {
            "address": "Chinese Acad Sci, Natl Sci Lib, Beijing, China",
            "name": "Chinese Acad Sci",
            "lat": 39.90723,
            "lng": 116.40875,
            "src": "ai",
            "model": "Aliyun:qwen2.5-7b-instruct-1m"
        },
        {
            "address": "China Univ Min & Technol Beijing, Sch Management, Beijing, China",
            "name": "China Univ Min & Technol Beijing",
            "lat": 39.9042,
            "lng": 116.4074,
            "src": "ai",
            "model": "Aliyun:qwen3-next-80b-a3b-instruct"
        },
        {
            "address": "Seoul Natl Univ, Seoul, South Korea",
            "name": "Seoul National University",
            "lat": 37.5665,
            "lng": 126.978,
            "src": "ai",
            "model": "Aliyun:qwen-coder-turbo-0919"
        },
        {
            "address": "Nanjing Agr Univ, Sch Informat Management, Nanjing 210095, China",
            "name": "Nanjing Agr Univ",
            "lat": 32.0645,
            "lng": 118.7879,
            "src": "ai",
            "model": "Aliyun:qwen2.5-7b-instruct"
        },
        {
            "address": "Hangzhou Dianzi Univ, Chinese Acad Sci & Educ Evaluat CASSE, Hangzhou, Zhejiang, China",
            "name": "Hangzhou Dianzi Univ",
            "lat": 30.2448,
            "lng": 120.1464,
            "src": "ai",
            "model": "Aliyun:qwen-plus-2025-04-28"
        },
        {
            "address": "McGill Univ, Sch Informat Studies, Montreal, PQ, Canada",
            "name": "McGill Univ",
            "lat": 45.5017,
            "lng": -73.5673,
            "src": "ai",
            "model": "Aliyun:qwen-coder-plus-1106"
        },
        {
            "address": "Zhongyuan Univ Technol, Sch Econ & Management, Zhengzhou 451191, China",
            "name": "Zhongyuan University of Technology",
            "lat": 34.7628,
            "lng": 113.6148,
            "src": "ai",
            "model": "Aliyun:qwen-coder-turbo-latest"
        },
        {
            "address": "Beijing Inst Technol, Sch Global Governance, Beijing 100081, China",
            "name": "Beijing Inst Technol",
            "lat": 39.9042,
            "lng": 116.4074,
            "src": "ai",
            "model": "Aliyun:qwen-coder-plus-latest"
        },
        {
            "address": "Beijing Inst Technol, Sch Management & Econ, Beijing 100081, China",
            "name": "Beijing Institute of Technology",
            "lat": 39.9814,
            "lng": 116.3323,
            "src": "ai",
            "model": "Aliyun:qwen-plus-2025-12-01"
        },
        {
            "address": "Beijing Inst Technol, Off 423,Main Bldg,5,South St, Beijing 100081, China",
            "name": "Beijing Inst Technol",
            "lat": 39.9076,
            "lng": 116.3972,
            "src": "ai",
            "model": "Aliyun:qwen-coder-turbo"
        },
        {
            "address": "Univ Debrecen, Dept Civil Engn, 2-4 Otemeto U, H-4028 Debrecen, Hungary",
            "name": "Univ Debrecen",
            "lat": 46.5301,
            "lng": 20.4965,
            "src": "ai",
            "model": "Aliyun:qwen2.5-coder-14b-instruct"
        },
        {
            "address": "Hungarian Cent Stat Off, 5-7 Keleti Karoly U, H-1024 Budapest, Hungary",
            "name": "Hungarian Cent Stat Off",
            "lat": 47.4979,
            "lng": 19.0402,
            "src": "ai",
            "model": "Aliyun:qwen2.5-coder-32b-instruct"
        },
        {
            "address": "Adm Headquarters Max Planck Soc, Div Sci & Innovat Studies, D-80539 Munich, Germany",
            "name": "Max Planck Society",
            "lat": 48.1351,
            "lng": 11.582,
            "src": "ai",
            "model": "Aliyun:qwen3-coder-flash"
        },
        {
            "address": "Univ Sussex, Dept Econ, E Sussex BN1 9SL, UK",
            "name": "Univ Sussex",
            "lat": 50.7986,
            "lng": -0.1249,
            "src": "ai",
            "model": "Aliyun:qwen-turbo-2025-07-15"
        },
        {
            "address": "Vrije Univ Amsterdam, Dept Spatial Econ, Amsterdam, Netherlands",
            "name": "Vrije Univ Amsterdam",
            "lat": 52.3792,
            "lng": 4.892,
            "src": "ai",
            "model": "Aliyun:tongyi-xiaomi-analysis-flash"
        },
        {
            "address": "Tinbergen Inst, Amsterdam, Netherlands",
            "name": "Tinbergen Institute",
            "lat": 52.3676,
            "lng": 4.9041,
            "src": "ai",
            "model": "Aliyun:qwen3-coder-next"
        },
        {
            "address": "CESifo, Munich, Germany",
            "name": "CESifo",
            "lat": 48.1351,
            "lng": 11.5755,
            "src": "ai",
            "model": "Aliyun:qwen-turbo-2025-04-28"
        },
        {
            "address": "Colorado Sch Mines, Payne Inst Publ Policy, Golden, USA",
            "name": "Colorado School of Mines",
            "lat": 39.7482,
            "lng": -105.0566,
            "src": "ai",
            "model": "Aliyun:qwen-flash"
        },
        {
            "address": "Abu Dhabi Univ, Coll Business, Abu Dhabi, U Arab Emirates",
            "name": "Abu Dhabi Univ",
            "lat": 24.4667,
            "lng": 54.3667,
            "src": "ai",
            "model": "Aliyun:qwen-turbo-2024-11-01"
        },
        {
            "address": "Katholieke Univ Leuven, Ctr R&D Monitoring ECOOM, Louvain, Belgium",
            "name": "Katholieke Univ Leuven",
            "lat": 50.8621,
            "lng": 4.7039,
            "src": "ai",
            "model": "Aliyun:qwen3-30b-a3b-instruct-2507"
        },
        {
            "address": "Univ Fed Minas Gerais, Dept Comp Sci, BR-31270901 Belo Horizonte, MG, Brazil",
            "name": "Univ Fed Minas Gerais",
            "lat": -19.9167,
            "lng": -43.9333,
            "src": "ai",
            "model": "Aliyun:qwen-turbo-latest"
        },
        {
            "address": "Virginia Tech, Dept Comp Sci, Blacksburg, USA",
            "name": "Virginia Tech",
            "lat": 37.2296,
            "lng": -80.4139,
            "src": "ai",
            "model": "Aliyun:qwen3-coder-480b-a35b-instruct"
        },
        {
            "address": "Kyoto Univ, Kyoto, Japan",
            "name": "Kyoto Univ",
            "lat": 35.0136,
            "lng": 135.768,
            "src": "ai",
            "model": "Aliyun:tongyi-xiaomi-analysis-pro"
        },
        {
            "address": "RIKEN AIP, Tokyo, Japan",
            "name": "RIKEN AIP",
            "lat": 35.6895,
            "lng": 139.6917,
            "src": "ai",
            "model": "Aliyun:qwen2.5-14b-instruct"
        },
        {
            "address": "Seoul Natl Univ, Technol Management Econ & Policy Program, 1 Gwanak Ro, Seoul 08826, South Korea",
            "name": "Seoul National University",
            "lat": 37.5565,
            "lng": 126.9755,
            "src": "ai",
            "model": "Aliyun:codeqwen1.5-7b-chat"
        },
        {
            "address": "Seoul Natl Univ, Integrated Major Smart City Global Convergence, 1 Gwanak Ro, Seoul 08826, South Korea",
            "name": "Seoul National University",
            "lat": 37.4597,
            "lng": 126.9527,
            "src": "ai",
            "model": "Aliyun:qwen3-coder-plus-2025-07-22"
        },